id,nombre,estado,num_reg,reg_id,f_inicio,f_control,f_extincion,f_deteccion,f_aviso,f_despacho,f_salida,f_arribo,f_ataque,sup_total,lat,lon,ambito,comb_inicial,snaspe,comuna,provincia,region,reg_order,nom_order,fmt_inicio,dia_nom,rango_hora,sha2_ultimo_poligono
794053475,SAN CARLOS PUREN,Extinguido,196,8,2025-12-16 16:33,2025-12-16 18:42,2025-12-17 17:02,2025-12-16 16:35,2025-12-16 16:36,2025-12-16 16:37,2025-12-16 16:38,2025-12-16 16:47,2025-12-16 17:05,"0,67",-37.603057861328125,-72.26667022705078,CONAF,Matorral,,Los Angeles,Biobio,Biobío,11,08 Biobío,2025-12-16 16:33:00,martes,17,
862817802,ERRAZURIZ,Extinguido,618,13,2026-05-17 15:08,2026-05-17 16:07,2026-05-17 16:12,2026-05-17 15:10,2026-05-17 15:12,2026-05-17 15:12,2026-05-17 15:14,2026-05-17 15:39,2026-05-17 15:39,"2,50",-33.73249816894531,-71.20055389404297,CONAF,Desechos,,Melipilla,Melipilla,Metropolitana,7,13 Metropolitana,2026-05-17 15:08:00,domingo,16,
791831373,SANTA REBECA,Extinguido,184,7,2025-12-08 13:20,2025-12-08 14:58,2025-12-08 16:57,2025-12-08 13:21,2025-12-08 13:22,2025-12-08 13:23,2025-12-08 13:29,2025-12-08 13:52,2025-12-08 13:53,"0,60",-35.096675872802734,-71.23530578613281,CONAF,Matorral,,Molina,Curicó,Maule,9,07 Maule,2025-12-08 13:20:00,lunes,14,
865567347,SANTA ROSA 6,Extinguido,624,13,2026-05-23 18:25,2026-05-24 10:01,2026-05-24 11:21,2026-05-23 18:27,2026-05-23 18:31,2026-05-23 18:37,2026-05-23 18:37,2026-05-23 18:54,2026-05-23 18:56,"0,20",-33.266361236572266,-70.78819274902344,CONAF,Basural,,Lampa,Chacabuco,Metropolitana,7,13 Metropolitana,2026-05-23 18:25:00,sábado,19,
821807028,VEGUILLA DE LA VIRGEN,Extinguido,556,8,2026-02-21 11:12,2026-02-21 12:32,2026-02-21 13:53,2026-02-21 11:14,2026-02-21 11:15,2026-02-21 11:16,2026-02-21 11:18,2026-02-21 11:27,2026-02-21 11:34,"0,25",-36.95694351196289,-72.929443359375,CONAF,Plantación eucaliptus,,Hualqui,Concepción,Biobío,11,08 Biobío,2026-02-21 11:12:00,sábado,12,
822145431,ESTANCILLA,Extinguido,546,7,2026-02-21 22:56,2026-02-22 18:49,2026-02-22 19:23,2026-02-21 22:57,2026-02-21 22:58,2026-02-21 22:59,2026-02-21 22:59,2026-02-22 00:20,2026-02-22 00:24,"14,50",-35.10194396972656,-71.8691635131836,CONAF,Plantación pino,,Curepto,Talca,Maule,9,07 Maule,2026-02-21 22:56:00,sábado,23,
805021261,SANTA ANA,Extinguido,242,16,2026-01-17 12:46,2026-01-18 10:59,2026-01-18 20:28,2026-01-17 12:48,2026-01-17 12:49,2026-01-17 12:50,2026-01-17 12:50,2026-01-17 13:05,2026-01-17 13:06,"1,67",-36.73948287963867,-72.132568359375,CONAF,Pastizal,,San Ignacio,Diguillín,Ñuble,10,16 Ñuble,2026-01-17 12:46:00,sábado,13,
863684668,11CH KM 153,Extinguido,13,15,2026-05-19 14:00,2026-05-19 15:40,2026-05-19 16:45,2026-05-19 14:40,2026-05-19 14:48,,2026-05-19 14:48,2026-05-19 15:18,2026-05-19 15:25,"0,02",-18.1749267578125,-69.37371063232422,CONAF,Pastizal,,Arica,Arica,Arica y Parinacota,1,15 Arica y Parinacota,2026-05-19 14:00:00,martes,15,
830765551,523 - MONTE OSCURO 2 (PARTICULAR),Extinguido,604,7,2026-02-22 15:52,2026-02-22 16:30,2026-03-22 16:32,2026-02-22 15:53,2026-02-22 15:53,2026-02-22 15:54,2026-02-22 15:54,2026-02-22 16:08,2026-02-22 16:10,"0,10",-35.240577697753906,-71.19585418701172,CONAF,Matorral,,Río Claro,Talca,Maule,9,07 Maule,2026-02-22 15:52:00,domingo,16,
821910427,"MANCO ALTO Y BAJO, COLICO",Extinguido,509,8,2026-02-21 15:20,2026-02-21 16:00,2026-02-21 16:25,2026-02-21 15:20,2026-02-21 15:20,2026-02-21 15:21,2026-02-21 15:21,2026-02-21 15:32,2026-02-21 15:34,"0,05",-37.040000915527344,-73.11961364746094,Empresa,,,Coronel,Concepción,Biobío,11,08 Biobío,2026-02-21 15:20:00,sábado,16,
821947252,LOS CASTAÑOS,Extinguido,562,8,2026-02-21 16:27,2026-02-21 17:16,2026-02-21 18:17,2026-02-21 16:29,2026-02-21 16:30,2026-02-21 16:31,2026-02-21 16:31,2026-02-21 16:41,2026-02-21 16:46,"1,00",-37.36000061035156,-72.89583587646484,CONAF,Pastizal,,Nacimiento,Biobio,Biobío,11,08 Biobío,2026-02-21 16:27:00,sábado,17,
786873172,TIUQUILEMU,Extinguido,66,16,2025-11-18 17:18,2025-11-18 18:45,2025-11-18 19:07,2025-11-18 17:20,2025-11-18 17:21,2025-11-18 17:22,2025-11-18 17:22,2025-11-18 17:45,2025-11-18 17:45,"0,15",-36.39500045776367,-71.83694458007812,CONAF,Matorral,,Ñiquén,Punilla,Ñuble,10,16 Ñuble,2025-11-18 17:18:00,martes,18,
865879139,EL CASTILLO,Extinguido,714,8,2026-05-24 12:30,2026-05-24 12:45,2026-05-24 12:45,2026-05-24 12:32,2026-05-24 12:33,2026-05-24 12:35,2026-05-24 12:35,2026-05-24 12:35,2026-05-24 12:39,"0,05",-37.54111099243164,-71.81138610839844,CONAF,Arbolado natural,,Santa Bárbara,Biobio,Biobío,11,08 Biobío,2026-05-24 12:30:00,domingo,13,
794856274,LA CAPILLA PORCION 1 Y 2,Extinguido,234,8,2025-12-18 18:16,2025-12-18 18:58,2025-12-18 21:40,2025-12-18 18:17,2025-12-18 18:18,2025-12-18 18:18,2025-12-18 18:18,2025-12-18 18:32,2025-12-18 18:33,"0,02",-37.33777618408203,-72.18944549560547,Empresa,,,Los Angeles,Biobio,Biobío,11,08 Biobío,2025-12-18 18:16:00,jueves,19,
803016349,499 - CASAS VIEJAS,Extinguido,499,7,2026-01-12 17:54,2026-01-17 13:30,2026-01-30 04:30,2026-01-12 17:55,2026-01-12 17:55,2026-01-12 17:55,2026-01-12 17:57,2026-01-12 18:03,2026-01-12 18:10,"73,28",-35.303611755371094,-71.19805908203125,Empresa,Plantación pino,,Río Claro,Talca,Maule,9,07 Maule,2026-01-12 17:54:00,lunes,18,7ac04eb940d89419c7bcf40d18dc7428265e528091f367ec634c65c9b478b15c
810527640,EL QUILLAY S (PARTICULAR),Extinguido,273,16,2026-01-19 22:19,2026-01-20 01:10,2026-02-04 15:04,2026-01-19 22:19,2026-01-19 22:19,2026-01-19 22:20,2026-01-19 22:21,2026-01-19 22:54,2026-01-19 23:30,"2,30",-36.776390075683594,-72.55972290039062,CONAF,Pastizal,,Quillón,Diguillín,Ñuble,10,16 Ñuble,2026-01-19 22:19:00,lunes,23,
805091496,SANTA CRUZ - PAN GRANDE,Extinguido,435,9,2026-01-17 15:50,2026-01-22 23:44,2026-01-23 23:03,2026-01-17 15:51,2026-01-17 15:52,2026-01-17 15:55,2026-01-17 15:55,2026-01-17 16:07,2026-01-17 16:07,"628,52",-37.92371368408203,-72.43138885498047,CONAF,Desechos,,Collipulli,Malleco,La Araucanía,12,09 La Araucanía,2026-01-17 15:50:00,sábado,16,b2f90437db57242bd5719c474eee1c75ca20c3581d062a33a33c8043fb724b71
809644479,SAN ROBERTO,Extinguido,451,9,2026-01-26 16:40,2026-01-30 15:55,2026-02-21 17:13,2026-01-26 16:41,2026-01-26 16:42,2026-01-26 16:44,2026-01-26 16:44,2026-01-26 17:27,2026-01-26 17:27,"1,00",-38.1058349609375,-72.47833251953125,Empresa,,,Traiguén,Malleco,La Araucanía,12,09 La Araucanía,2026-01-26 16:40:00,lunes,17,
791880534,PAREDONES DE AUQUINCO,Extinguido,112,6,2025-12-08 16:30,2025-12-08 19:52,2025-12-09 12:44,2025-12-08 16:35,2025-12-08 16:36,2025-12-08 16:37,2025-12-08 16:38,2025-12-08 17:17,2025-12-08 17:32,"1,04",-34.77275848388672,-71.15506744384766,CONAF,Matorral,,Chépica,Colchagua,O'Higgins,8,06 O'Higgins,2025-12-08 16:30:00,lunes,17,
791790363,COLLIGUAY II,Extinguido,109,16,2025-12-08 10:22,2025-12-08 11:26,2025-12-08 12:05,2025-12-08 10:24,2025-12-08 10:25,2025-12-08 10:26,2025-12-08 10:27,2025-12-08 10:38,2025-12-08 10:39,"0,17",-36.654720306396484,-72.3597183227539,CONAF,Pastizal,,Chillán,Diguillín,Ñuble,10,16 Ñuble,2025-12-08 10:22:00,lunes,11,
791036322,PURGATORIO GRANDE R.,Extinguido,182,8,2025-12-05 01:58,2025-12-05 05:01,2025-12-05 12:59,2025-12-05 01:58,2025-12-05 01:58,2025-12-05 01:58,2025-12-05 02:10,2025-12-05 02:59,2025-12-05 03:03,"0,50",-37.34944534301758,-73.00944519042969,Empresa,,,Santa Juana,Concepción,Biobío,11,08 Biobío,2025-12-05 01:58:00,viernes,2,
789951479,PELUN,Extinguido,172,8,2025-11-30 16:54,2025-11-30 17:35,2025-11-30 18:45,2025-11-30 16:54,2025-11-30 16:54,2025-11-30 16:54,2025-11-30 16:55,2025-11-30 17:07,2025-11-30 17:25,"0,02",-37.07694625854492,-73.00508117675781,Empresa,,,Santa Juana,Concepción,Biobío,11,08 Biobío,2025-11-30 16:54:00,domingo,17,
791312380,"LOS MAQUIS, LAUREL DE QUETRA",Extinguido,184,8,2025-12-05 00:52,2025-12-05 01:09,2025-12-05 01:30,2025-12-05 00:52,2025-12-05 00:52,2025-12-05 00:52,2025-12-05 00:53,2025-12-05 00:53,2025-12-05 01:00,"0,00",-37.03972244262695,-73.0683364868164,Empresa,,,Coronel,Concepción,Biobío,11,08 Biobío,2025-12-05 00:52:00,viernes,1,
862817301,BARRIO ACEVEDO 2,Extinguido,680,7,2026-05-17 15:04,2026-05-17 18:17,2026-05-17 18:56,2026-05-17 15:05,2026-05-17 15:06,2026-05-17 15:08,2026-05-17 15:08,2026-05-17 17:27,2026-05-17 17:28,"2,00",-35.222389221191406,-72.3175277709961,CONAF,Pastizal,,Constitución,Talca,Maule,9,07 Maule,2026-05-17 15:04:00,domingo,16,
864614494,COQUIMBO 3,Extinguido,623,13,2026-05-21 16:20,2026-05-21 17:08,2026-05-21 17:13,2026-05-21 16:23,2026-05-21 16:26,2026-05-21 16:26,2026-05-21 16:26,2026-05-21 16:39,2026-05-21 16:41,"0,10",-33.169193267822266,-70.7939682006836,CONAF,Pastizal,,Tiltil,Chacabuco,Metropolitana,7,13 Metropolitana,2026-05-21 16:20:00,jueves,17,
799043748,SAN CARLOS PUREN II,Extinguido,280,8,2026-01-01 10:05,2026-01-01 19:30,2026-01-01 20:15,2026-01-01 10:07,2026-01-01 10:08,2026-01-01 10:09,2026-01-01 10:09,2026-01-01 10:15,2026-01-01 10:50,"1,89",-37.60333251953125,-72.27889251708984,CONAF,Matorral,,Mulchén,Biobio,Biobío,11,08 Biobío,2026-01-01 10:05:00,jueves,11,
798629959,CERRO SANTA LUCIA,Extinguido,302,7,2025-12-31 02:35,2025-12-31 03:55,2025-12-31 12:06,2025-12-31 02:36,2025-12-31 02:37,2025-12-31 02:41,2025-12-31 02:41,2025-12-31 03:10,2025-12-31 03:15,"0,15",-35.275753021240234,-71.26290893554688,CONAF,Pastizal,,Río Claro,Talca,Maule,9,07 Maule,2025-12-31 02:35:00,miércoles,3,
821020892,CERRO DE LA VIRGEN,Extinguido,537,7,2026-02-19 20:30,2026-02-19 21:40,2026-02-19 22:45,2026-02-19 20:31,2026-02-19 20:32,2026-02-19 20:33,2026-02-19 20:34,2026-02-19 20:40,2026-02-19 20:41,"1,00",-35.41611099243164,-71.68360900878906,CONAF,Pastizal,,Talca,Talca,Maule,9,07 Maule,2026-02-19 20:30:00,jueves,21,
791875219,PANELES SOLARES - SANTA LUISA SOLAR II,Extinguido,110,16,2025-12-08 16:09,2025-12-08 17:06,2025-12-08 17:22,2025-12-08 16:11,2025-12-08 16:12,2025-12-08 16:13,2025-12-08 16:14,2025-12-08 16:25,2025-12-08 16:38,"0,26",-36.455833435058594,-71.96722412109375,CONAF,Pastizal,,San Carlos,Punilla,Ñuble,10,16 Ñuble,2025-12-08 16:09:00,lunes,17,
832038279,CIRUELITO (PARTICULAR),Extinguido,567,14,2026-03-09 16:11,2026-03-09 16:55,2026-03-09 17:30,2026-03-09 16:11,2026-03-09 16:11,2026-03-09 16:11,2026-03-09 16:12,2026-03-09 16:26,2026-03-09 16:32,"0,02",-39.5191650390625,-72.8661117553711,CONAF,Matorral,,Mariquina,Valdivia,Los Ríos,13,14 Los Ríos,2026-03-09 16:11:00,lunes,17,
816733788,LOS CORRALES,Extinguido,503,7,2026-02-11 17:50,2026-02-11 18:30,2026-02-11 19:10,2026-02-11 17:51,2026-02-11 17:52,2026-02-11 17:53,2026-02-11 17:53,2026-02-11 17:54,2026-02-11 17:54,"0,10",-35.38722229003906,-71.69916534423828,CONAF,Pastizal,,Pencahue,Talca,Maule,9,07 Maule,2026-02-11 17:50:00,miércoles,18,
862297854,COMUNIDAD,Extinguido,7,1,2026-05-16 05:05,2026-05-16 06:00,2026-05-16 06:22,2026-05-16 05:15,2026-05-16 05:15,2026-05-16 05:15,2026-05-16 05:16,2026-05-16 05:20,2026-05-16 05:30,"0,01",-20.492788314819336,-69.32748413085938,CONAF,Pastizal,,Pica,Tamarugal,Tarapacá,2,01 Tarapacá,2026-05-16 05:05:00,sábado,6,
862362419,LAS TOMITAS,Extinguido,8,1,2026-05-16 11:15,2026-05-16 12:20,2026-05-16 12:30,2026-05-16 11:20,2026-05-16 11:24,2026-05-16 11:53,2026-05-16 11:55,2026-05-16 11:59,2026-05-16 12:10,"0,01",-20.48794937133789,-69.32054138183594,CONAF,Pastizal,,Pica,Tamarugal,Tarapacá,2,01 Tarapacá,2026-05-16 11:15:00,sábado,12,
814336383,"ELISA,SANTA",Extinguido,466,14,2026-01-30 08:18,2026-01-30 13:20,2026-01-30 14:50,2026-01-30 08:18,2026-01-30 08:18,2026-01-30 08:18,2026-01-30 08:25,2026-01-30 12:13,2026-01-30 12:48,"0,02",-40.12638854980469,-73.22638702392578,Empresa,,,La Unión,Ranco,Los Ríos,13,14 Los Ríos,2026-01-30 08:18:00,viernes,9,
822498413,TROMEN QUEPE,Extinguido,708,9,2026-02-22 16:27,2026-02-22 17:29,2026-02-22 17:29,2026-02-22 16:28,2026-02-22 16:29,2026-02-22 16:30,2026-02-22 16:30,2026-02-22 16:47,2026-02-22 16:47,"0,05",-38.83388900756836,-72.4927749633789,CONAF,Pastizal,,Padre Las Casas,Cautín,La Araucanía,12,09 La Araucanía,2026-02-22 16:27:00,domingo,17,
793027449,VILLA GENESIS IV,Extinguido,174,8,2025-12-12 20:05,2025-12-12 20:58,2025-12-12 21:10,2025-12-12 20:07,2025-12-12 20:08,2025-12-12 20:09,2025-12-12 20:09,2025-12-12 20:39,2025-12-12 20:50,"0,01",-37.48055648803711,-72.39861297607422,CONAF,Pastizal,,Los Angeles,Biobio,Biobío,11,08 Biobío,2025-12-12 20:05:00,viernes,21,
792666041,LA JUNTA,Extinguido,4,3,2025-12-11 12:00,2025-12-11 13:50,2025-12-11 14:03,2025-12-11 12:11,2025-12-11 12:12,2025-12-11 12:12,2025-12-11 12:12,2025-12-11 12:25,2025-12-11 12:30,"0,03",-28.753108978271484,-70.48526763916016,CONAF,Arbolado natural,,Alto del Carmen,Huasco,Atacama,4,03 Atacama,2025-12-11 12:00:00,jueves,13,
802501240,LA ROTONDA (PARTICULAR),Extinguido,48,14,2026-01-07 22:35,2026-01-07 23:40,2026-01-07 23:50,2026-01-07 22:35,2026-01-07 22:35,2026-01-07 22:35,2026-01-07 22:35,2026-01-07 22:58,2026-01-07 23:07,"0,06",-39.531944274902344,-72.87611389160156,CONAF,Matorral,,Mariquina,Valdivia,Los Ríos,13,14 Los Ríos,2026-01-07 22:35:00,miércoles,23,
788653605,EL CERRO DE PELLOMENCO Y,Extinguido,155,9,2025-11-23 10:30,2025-11-23 14:40,2025-11-28 19:55,2025-11-23 10:31,2025-11-23 10:32,2025-11-23 10:34,2025-11-23 10:37,2025-11-23 11:01,2025-11-23 11:02,"1,47",-37.758056640625,-72.74722290039062,Empresa,,,Angol,Malleco,La Araucanía,12,09 La Araucanía,2025-11-23 10:30:00,domingo,11,
814336781,203601 - ARAGON,Extinguido,468,14,2026-01-30 08:30,2026-01-30 15:00,2026-01-30 16:25,2026-01-30 08:30,2026-01-30 08:30,2026-01-30 09:30,2026-01-30 09:31,2026-01-30 10:00,2026-01-30 10:00,"0,00",-39.358890533447266,-73.00861358642578,Empresa,,,Mariquina,Valdivia,Los Ríos,13,14 Los Ríos,2026-01-30 08:30:00,viernes,9,
811339434,GA-LAS MELLIZAS,Extinguido,413,16,2026-01-30 14:05,2026-01-30 14:41,2026-01-30 15:52,2026-01-30 14:05,2026-01-30 14:05,2026-01-30 14:06,2026-01-30 14:06,2026-01-30 14:11,2026-01-30 14:19,"0,10",-36.911109924316406,-72.36499786376953,Empresa,,,Pemuco,Diguillín,Ñuble,10,16 Ñuble,2026-01-30 14:05:00,viernes,15,
866273202,LOS CARDILLOS 1,Extinguido,475,6,2026-05-25 10:48,2026-05-25 12:47,2026-05-25 13:30,2026-05-25 10:49,2026-05-25 10:50,2026-05-25 10:50,2026-05-25 10:50,2026-05-25 11:08,2026-05-25 11:08,"0,63",-34.26731872558594,-71.56737518310547,CONAF,Pastizal,,La Estrella,Cardenal Caro,O'Higgins,8,06 O'Higgins,2026-05-25 10:48:00,lunes,11,
814339097,SANTA LUCIA II Y OTRO,Extinguido,471,14,2026-01-30 16:48,2026-01-30 19:35,2026-01-31 12:25,2026-01-30 16:48,2026-01-30 16:48,2026-01-30 16:48,2026-01-30 16:59,2026-01-30 19:12,2026-01-30 19:33,"0,00",-39.33944320678711,-73.02833557128906,Empresa,,,Mariquina,Valdivia,Los Ríos,13,14 Los Ríos,2026-01-30 16:48:00,viernes,17,
822441981,PARCELACION ESPINILLO,Extinguido,339,6,2026-02-22 14:22,2026-02-22 17:44,2026-02-22 19:23,2026-02-22 14:25,2026-02-22 14:27,2026-02-22 14:29,2026-02-22 14:29,2026-02-22 14:45,2026-02-22 14:50,"2,84",-34.12466812133789,-71.65350341796875,CONAF,Pastizal,,Litueche,Cardenal Caro,O'Higgins,8,06 O'Higgins,2026-02-22 14:22:00,domingo,15,2b7447bd8cc819396dc1d66fb79b81018173ed3e9d1e90d8251ed26ef94c8cde
792057158,ALPEHUE,Extinguido,213,9,2025-12-09 10:46,2025-12-09 19:33,2025-12-10 23:04,2025-12-09 10:47,2025-12-09 10:48,2025-12-09 10:53,2025-12-09 10:53,2025-12-09 13:13,2025-12-09 13:13,"0,01",-38.91114044189453,-71.63999938964844,CONAF,Arbolado natural,,Melipeuco,Cautín,La Araucanía,12,09 La Araucanía,2025-12-09 10:46:00,martes,11,
821885878,VERTEDERO,Extinguido,339,16,2026-02-21 14:09,2026-02-21 15:07,2026-02-21 15:26,2026-02-21 14:11,2026-02-21 14:12,2026-02-21 14:13,2026-02-21 14:14,2026-02-21 14:23,2026-02-21 14:25,"0,37",-36.69694519042969,-72.16278076171875,CONAF,Pastizal,,Chillán Viejo,Diguillín,Ñuble,10,16 Ñuble,2026-02-21 14:09:00,sábado,15,
825856305,LOS MONOS,Extinguido,535,16,2026-02-27 13:53,,2026-02-28 09:07,2026-02-27 13:53,2026-02-27 13:53,2026-02-27 13:53,2026-02-27 13:53,2026-02-27 13:57,2026-02-27 15:17,"0,01",-36.48249816894531,-71.65416717529297,Empresa,,,San Fabián,Punilla,Ñuble,10,16 Ñuble,2026-02-27 13:53:00,viernes,14,
822929661,SAN CRISTOBAL PART.,Extinguido,569,8,2026-02-22 18:46,2026-02-22 19:10,2026-02-22 20:00,2026-02-22 18:48,2026-02-22 18:49,2026-02-22 18:50,2026-02-22 18:50,2026-02-22 19:00,2026-02-22 19:02,"0,05",-37.14277648925781,-72.6058349609375,CONAF,Matorral,,Yumbel,Biobio,Biobío,11,08 Biobío,2026-02-22 18:46:00,domingo,19,
792388634,QUILLOTA,Extinguido,222,9,2025-12-10 14:07,2025-12-10 15:44,2025-12-10 23:12,2025-12-10 14:08,2025-12-10 14:09,2025-12-10 14:10,2025-12-10 14:11,2025-12-10 15:01,2025-12-10 15:02,"0,02",-37.75055694580078,-72.68499755859375,CONAF,Plantación eucaliptus,,Angol,Malleco,La Araucanía,12,09 La Araucanía,2025-12-10 14:07:00,miércoles,15,
790194582,PIEDRA AMARILLA,Extinguido,173,16,2025-11-30 16:15,2025-11-30 17:20,2025-11-30 17:25,2025-11-30 16:15,2025-11-30 16:15,2025-11-30 16:15,2025-11-30 16:16,2025-11-30 17:02,2025-11-30 17:20,"0,00",-36.29066848754883,-72.48291778564453,Empresa,,,Quirihue,Itata,Ñuble,10,16 Ñuble,2025-11-30 16:15:00,domingo,17,
790447262,LAS TOSCAS 2,Extinguido,176,16,2025-12-02 18:38,2025-12-02 19:37,2025-12-02 19:48,2025-12-02 18:38,2025-12-02 18:38,2025-12-02 18:38,2025-12-02 18:39,2025-12-02 18:58,2025-12-02 19:15,"0,00",-36.401390075683594,-72.64555358886719,Empresa,,,Treguaco,Itata,Ñuble,10,16 Ñuble,2025-12-02 18:38:00,martes,19,
797269353,COLO COLO,Extinguido,240,8,2025-12-26 19:24,2025-12-26 20:10,2025-12-26 20:13,2025-12-26 19:26,2025-12-26 19:27,2025-12-26 19:28,2025-12-26 19:28,2025-12-26 19:44,2025-12-26 19:47,"0,01",-37.473609924316406,-72.38138580322266,CONAF,Pastizal,,Los Angeles,Biobio,Biobío,11,08 Biobío,2025-12-26 19:24:00,viernes,20,
792730783,LAJA II,Extinguido,169,8,2025-12-11 18:04,2025-12-11 18:56,2025-12-11 18:58,2025-12-11 18:06,2025-12-11 18:07,2025-12-11 18:08,2025-12-11 18:12,2025-12-11 18:23,2025-12-11 18:35,"0,02",-37.27138900756836,-72.71805572509766,CONAF,Pastizal,,Laja,Biobio,Biobío,11,08 Biobío,2025-12-11 18:04:00,jueves,19,
794441113,PASO LA HUERTA,Extinguido,132,16,2025-12-17 16:44,2025-12-17 19:13,2025-12-17 20:43,2025-12-17 16:46,2025-12-17 16:47,2025-12-17 16:48,2025-12-17 16:50,2025-12-17 17:00,2025-12-17 17:01,"6,18",-36.790279388427734,-72.01860809326172,CONAF,Cultivo agrícola,,San Ignacio,Diguillín,Ñuble,10,16 Ñuble,2025-12-17 16:44:00,miércoles,17,
794663159,COLO COLO FBB,Extinguido,222,16,2025-12-18 08:37,2025-12-18 09:35,2025-12-18 09:58,2025-12-18 08:37,2025-12-18 08:37,2025-12-18 08:37,2025-12-18 08:40,2025-12-18 09:06,2025-12-18 09:20,"0,01",-36.66749954223633,-71.69750213623047,Empresa,,,Coihueco,Punilla,Ñuble,10,16 Ñuble,2025-12-18 08:37:00,jueves,9,
814340282,LIPINGUE 2,Extinguido,472,14,2026-01-31 18:39,2026-01-31 19:48,2026-02-01 09:12,2026-01-31 18:39,2026-01-31 18:39,2026-01-31 18:40,2026-01-31 18:40,2026-01-31 18:58,2026-01-31 19:05,"0,03",-39.934165954589844,-72.75971984863281,Empresa,,,Los Lagos,Valdivia,Los Ríos,13,14 Los Ríos,2026-01-31 18:39:00,sábado,19,
791670908,EL DESCABEZADO 2,Extinguido,188,8,2025-12-07 16:17,2025-12-07 16:51,2025-12-07 17:05,2025-12-07 16:17,2025-12-07 16:17,2025-12-07 16:17,2025-12-07 16:18,2025-12-07 16:24,2025-12-07 16:40,"0,06",-37.49416732788086,-73.32472229003906,Empresa,,,Curanilahue,Arauco,Biobío,11,08 Biobío,2025-12-07 16:17:00,domingo,17,
795063849,228 - SAN ISIDRO,Extinguido,228,16,2025-12-19 13:28,2025-12-19 19:00,2025-12-27 17:14,2025-12-19 13:28,2025-12-19 13:28,2025-12-19 13:29,2025-12-19 13:31,2025-12-19 13:52,2025-12-19 13:53,"2,48",-36.57472229003906,-71.61333465576172,Empresa,Plantación pino,,Coihueco,Punilla,Ñuble,10,16 Ñuble,2025-12-19 13:28:00,viernes,14,
791814591,ESTADIO LEBU,Extinguido,189,8,2025-12-07 18:32,2025-12-07 19:08,2025-12-07 19:22,2025-12-07 18:32,2025-12-07 18:32,2025-12-07 18:33,2025-12-07 18:33,2025-12-07 18:45,2025-12-07 18:50,"0,01",-37.60194396972656,-73.64083099365234,Empresa,,,Lebu,Arauco,Biobío,11,08 Biobío,2025-12-07 18:32:00,domingo,19,
791814995,PINGUERAL FBB,Extinguido,190,8,2025-12-07 21:08,2025-12-07 22:12,2025-12-07 22:30,2025-12-07 21:08,2025-12-07 21:08,2025-12-07 21:08,2025-12-07 21:08,2025-12-07 22:00,2025-12-07 22:06,"0,00",-36.5352783203125,-72.85305786132812,Empresa,,,Tomé,Concepción,Biobío,11,08 Biobío,2025-12-07 21:08:00,domingo,22,
792236003,EL MAITEN,Extinguido,192,9,2025-12-08 15:37,2025-12-08 17:30,2025-12-11 12:36,2025-12-08 15:37,2025-12-08 15:37,2025-12-08 15:37,2025-12-08 15:37,2025-12-08 16:02,2025-12-08 16:03,"1,00",-38.237220764160156,-72.91860961914062,Empresa,,,Lumaco,Malleco,La Araucanía,12,09 La Araucanía,2025-12-08 15:37:00,lunes,16,
864113831,CEMENTERIO DONGUIL,Extinguido,929,9,2026-05-20 14:28,2026-05-20 15:36,2026-05-20 17:08,2026-05-20 14:29,2026-05-20 14:30,2026-05-20 14:30,2026-05-20 14:30,2026-05-20 14:40,2026-05-20 14:40,"0,50",-39.02522277832031,-72.78955841064453,CONAF,Matorral,,Pitrufquén,Cautín,La Araucanía,12,09 La Araucanía,2026-05-20 14:28:00,miércoles,15,
866402387,STA EUGENIA M,Extinguido,620,16,2026-05-17 07:02,2026-05-25 14:30,2026-05-28 16:51,2026-05-17 07:02,2026-05-17 07:02,2026-05-17 07:02,2026-05-17 07:02,2026-05-17 08:53,2026-05-17 09:12,"0,50",-36.518611907958984,-71.725830078125,Empresa,,,Coihueco,Punilla,Ñuble,10,16 Ñuble,2026-05-17 07:02:00,domingo,8,
791895824,LA FARFANA,Extinguido,211,13,2025-12-08 17:05,2025-12-09 11:19,2025-12-09 15:35,2025-12-08 17:07,2025-12-08 17:08,2025-12-08 17:08,2025-12-08 17:10,2025-12-08 17:34,2025-12-08 17:35,"6,00",-33.46305465698242,-70.77555847167969,CONAF,Pastizal,,Maipú,Santiago,Metropolitana,7,13 Metropolitana,2025-12-08 17:05:00,lunes,18,
813970846,PUTABLA 2,Extinguido,75,14,2026-02-05 18:37,2026-02-05 19:43,2026-02-05 19:43,2026-02-05 18:39,2026-02-05 18:44,2026-02-05 18:46,2026-02-05 18:46,2026-02-05 19:06,2026-02-05 19:06,"0,30",-39.69027328491211,-73.05235290527344,CONAF,Cultivo agrícola,,Máfil,Valdivia,Los Ríos,13,14 Los Ríos,2026-02-05 18:37:00,jueves,19,
802502464,EL SALTO 1 LOTE A (PARTICULAR),Extinguido,49,14,2026-01-04 22:05,2026-01-05 00:04,2026-01-05 00:25,2026-01-04 22:05,2026-01-04 22:05,2026-01-04 22:06,2026-01-04 22:08,2026-01-04 23:09,2026-01-04 23:55,"0,01",-39.98202896118164,-72.71388244628906,CONAF,Matorral,,Los Lagos,Valdivia,Los Ríos,13,14 Los Ríos,2026-01-04 22:05:00,domingo,23,
803414483,EL MANZANO,Extinguido,367,7,2026-01-13 17:51,2026-01-13 18:20,2026-01-13 19:46,2026-01-13 17:52,2026-01-13 17:53,2026-01-13 17:54,2026-01-13 17:54,2026-01-13 18:00,2026-01-13 18:00,"0,70",-35.91494369506836,-71.45410919189453,CONAF,Pastizal,,Linares,Linares,Maule,9,07 Maule,2026-01-13 17:51:00,martes,18,
792984310,SANTA AGUEDA,Extinguido,203,7,2025-12-12 17:00,2025-12-12 19:21,2025-12-12 21:35,2025-12-12 17:01,2025-12-12 17:02,2025-12-12 17:07,2025-12-12 17:07,2025-12-12 17:18,2025-12-12 17:18,"3,20",-35.239845275878906,-71.35311126708984,CONAF,Pastizal,,Río Claro,Talca,Maule,9,07 Maule,2025-12-12 17:00:00,viernes,18,
824692760,ORILLA MAULE,Extinguido,571,7,2026-02-26 16:48,2026-02-26 19:03,2026-02-26 22:04,2026-02-26 16:49,2026-02-26 16:50,2026-02-26 16:52,2026-02-26 16:52,2026-02-26 17:27,2026-02-26 17:30,"2,00",-35.559417724609375,-71.67256927490234,CONAF,Pastizal,,San Javier,Linares,Maule,9,07 Maule,2026-02-26 16:48:00,jueves,17,
825738709,EL PELLIN FBB (PARTICULAR),Extinguido,534,8,2025-12-25 19:58,2025-12-25 20:45,2025-12-25 21:53,2025-12-25 19:58,2025-12-25 19:58,2025-12-25 19:58,2025-12-25 19:59,2025-12-25 20:09,2025-12-25 20:12,"0,02",-36.48500061035156,-72.84750366210938,Empresa,,,Tomé,Concepción,Biobío,11,08 Biobío,2025-12-25 19:58:00,jueves,20,
823011239,ROMERAL AFUERA,Extinguido,343,6,2026-02-23 15:07,2026-02-23 16:38,2026-02-23 17:16,2026-02-23 15:10,2026-02-23 15:10,2026-02-23 15:10,2026-02-23 15:13,2026-02-23 15:52,2026-02-23 15:52,"0,21",-34.73015594482422,-71.01168823242188,CONAF,Pastizal,,Chimbarongo,Colchagua,O'Higgins,8,06 O'Higgins,2026-02-23 15:07:00,lunes,16,
782655463,EL SEMINARIO  LLALLAUQUEN,Extinguido,26,6,2025-10-27 16:40,2025-10-27 17:38,2025-10-27 18:12,2025-10-27 16:40,2025-10-27 16:40,2025-10-27 16:40,2025-10-27 16:40,2025-10-27 16:40,2025-10-27 16:45,"0,20",-34.251609802246094,-71.42633056640625,CONAF,Pastizal,,Las Cabras,Cachapoal,O'Higgins,8,06 O'Higgins,2025-10-27 16:40:00,lunes,17,
792408625,ARIDOS SAN VICENTE,Extinguido,120,6,2025-12-10 15:16,2025-12-10 16:08,2025-12-10 16:15,2025-12-10 15:20,2025-12-10 15:22,2025-12-10 15:22,2025-12-10 15:25,2025-12-10 15:39,2025-12-10 15:39,"0,10",-34.41505432128906,-71.13719177246094,CONAF,Matorral,,San Vicente,Cachapoal,O'Higgins,8,06 O'Higgins,2025-12-10 15:16:00,miércoles,16,
792414060,PIE ANDINO,Extinguido,220,13,2025-12-10 15:35,2025-12-10 17:17,2025-12-10 18:53,2025-12-10 15:38,2025-12-10 15:41,2025-12-10 15:41,2025-12-10 15:44,2025-12-10 15:55,2025-12-10 16:05,"3,50",-33.35416793823242,-70.4927749633789,CONAF,Pastizal,,Lo Barnechea,Santiago,Metropolitana,7,13 Metropolitana,2025-12-10 15:35:00,miércoles,16,
790325364,SANTA ELOISA Y OTROS PART.,Extinguido,185,9,2025-11-28 15:20,2025-11-28 17:31,2025-11-29 14:15,2025-11-28 15:21,2025-11-28 15:22,2025-11-28 15:24,2025-11-28 15:32,2025-11-28 16:30,2025-11-28 16:31,"0,50",-38.997501373291016,-73.04805755615234,CONAF,Matorral,,Teodoro Schmidt,Cautín,La Araucanía,12,09 La Araucanía,2025-11-28 15:20:00,viernes,16,
792029839,191- EL MEMBRILLO (PARTICULAR),Extinguido,191,7,2025-12-02 20:44,2025-12-02 21:40,2025-12-04 01:35,2025-12-02 20:44,2025-12-02 20:44,2025-12-02 20:44,2025-12-02 20:44,2025-12-02 20:54,2025-12-02 21:05,"0,90",-35.30022048950195,-72.32798767089844,CONAF,Matorral,,Constitución,Talca,Maule,9,07 Maule,2025-12-02 20:44:00,martes,21,
823083595,QUILLON II,Extinguido,346,16,2026-02-23 17:41,2026-02-23 18:21,2026-02-23 19:03,2026-02-23 17:43,2026-02-23 17:45,2026-02-23 17:47,2026-02-23 17:48,2026-02-23 17:54,2026-02-23 17:57,"0,13",-36.74222183227539,-72.46083068847656,CONAF,Pastizal,,Quillón,Diguillín,Ñuble,10,16 Ñuble,2026-02-23 17:41:00,lunes,18,
825261154,PANGUILEMU VIñAS VIEJAS,Extinguido,352,16,2026-02-27 16:29,2026-03-01 16:16,2026-03-02 12:31,2026-02-27 16:31,2026-02-27 16:32,2026-02-27 16:33,2026-02-27 16:33,2026-02-27 16:50,2026-02-27 16:50,"28,00",-36.51388931274414,-72.4786148071289,CONAF,Basural,,Portezuelo,Itata,Ñuble,10,16 Ñuble,2026-02-27 16:29:00,viernes,17,d2ea4d04e905273bfa751306953dbfa583590341f5c02a2a861e0aff127b90be
786906933,CODIGUA,Extinguido,118,13,2025-11-18 19:17,2025-11-18 20:15,2025-11-18 20:58,2025-11-18 19:19,2025-11-18 19:22,2025-11-18 19:24,2025-11-18 19:24,2025-11-18 19:31,2025-11-18 19:31,"0,60",-33.76469421386719,-71.3403091430664,CONAF,Pastizal,,Melipilla,Melipilla,Metropolitana,7,13 Metropolitana,2025-11-18 19:17:00,martes,20,
791619096,POZO LASTRE,Extinguido,201,9,2025-12-07 14:33,2025-12-08 11:24,2025-12-09 19:23,2025-12-07 14:34,2025-12-07 14:35,2025-12-07 14:35,2025-12-07 14:35,2025-12-07 15:01,2025-12-07 15:01,"0,01",-39.010833740234375,-72.57971954345703,CONAF,Desechos,,Pitrufquén,Cautín,La Araucanía,12,09 La Araucanía,2025-12-07 14:33:00,domingo,15,
792435003,FUNDO LAS CASAS DE PENCAHUE,Extinguido,121,6,2025-12-10 16:33,2025-12-10 18:40,2025-12-10 19:28,2025-12-10 16:37,2025-12-10 16:38,2025-12-10 16:38,2025-12-10 16:38,2025-12-10 16:49,2025-12-10 16:55,"0,40",-34.44094467163086,-71.1634750366211,CONAF,Matorral,,San Vicente,Cachapoal,O'Higgins,8,06 O'Higgins,2025-12-10 16:33:00,miércoles,17,
822609554,ALEPúE,Extinguido,89,14,2026-02-22 20:07,2026-02-22 22:09,2026-02-22 22:20,2026-02-22 20:09,2026-02-22 20:09,2026-02-22 20:10,2026-02-22 20:10,2026-02-22 20:17,2026-02-22 20:26,"0,04",-39.48320770263672,-73.23149108886719,CONAF,Matorral,,Mariquina,Valdivia,Los Ríos,13,14 Los Ríos,2026-02-22 20:07:00,domingo,21,
786580658,CORNECHE BAJO,Extinguido,109,13,2025-11-17 15:50,2025-11-17 17:13,2025-11-17 17:23,2025-11-17 15:53,2025-11-17 15:56,2025-11-17 15:57,2025-11-17 15:57,2025-11-17 16:20,2025-11-17 16:21,"0,03",-33.942779541015625,-71.68194580078125,CONAF,Pastizal,,San Pedro,Melipilla,Metropolitana,7,13 Metropolitana,2025-11-17 15:50:00,lunes,16,
859000003,CAJON SAN PEDRO,Extinguido,565,5,2026-05-08 12:29,2026-05-08 14:20,2026-05-08 16:09,2026-05-08 12:31,2026-05-08 12:33,2026-05-08 12:34,2026-05-08 12:34,2026-05-08 12:50,2026-05-08 12:50,"0,24",-32.95905685424805,-71.20758056640625,CONAF,Pastizal,,Quillota,Quillota,Valparaíso,6,05 Valparaíso,2026-05-08 12:29:00,viernes,13,3fd6f9bc93b9c82df3959b6162684211f010809f0f485b46bb9ca951cd76c1d3
786842304,FUNDO EL BOSQUE,Extinguido,119,13,2025-11-18 15:42,2025-11-18 21:23,2025-11-18 21:24,2025-11-18 15:45,2025-11-18 15:48,2025-11-18 15:50,2025-11-18 15:50,2025-11-18 16:14,2025-11-18 16:14,"0,01",-33.54288864135742,-70.80555725097656,CONAF,Pastizal,,Maipú,Santiago,Metropolitana,7,13 Metropolitana,2025-11-18 15:42:00,martes,16,
825098434,FILUCO,Extinguido,91,14,2026-02-27 10:45,2026-02-27 12:35,2026-02-27 12:52,2026-02-27 10:49,2026-02-27 10:52,2026-02-27 10:54,2026-02-27 10:54,2026-02-27 11:02,2026-02-27 11:08,"0,10",-40.512916564941406,-72.73422241210938,CONAF,Matorral,,Río Bueno,Ranco,Los Ríos,13,14 Los Ríos,2026-02-27 10:45:00,viernes,11,
791922876,PUENTE PEUMO 1,Extinguido,114,6,2025-12-08 19:16,2025-12-08 19:50,2025-12-08 20:05,2025-12-08 19:18,2025-12-08 19:20,2025-12-08 19:25,2025-12-08 19:25,2025-12-08 19:32,2025-12-08 19:35,"0,20",-34.4154167175293,-71.13780975341797,CONAF,Pastizal,,San Vicente,Cachapoal,O'Higgins,8,06 O'Higgins,2025-12-08 19:16:00,lunes,20,
787041834,CERRO LAS CABRAS 3,Extinguido,120,13,2025-11-19 11:00,2025-11-19 12:08,2025-11-19 12:14,2025-11-19 11:03,2025-11-19 11:06,2025-11-19 11:06,2025-11-19 11:09,2025-11-19 11:15,2025-11-19 11:16,"0,09",-33.62083435058594,-70.60305786132812,CONAF,Pastizal,,Puente Alto,Cordillera,Metropolitana,7,13 Metropolitana,2025-11-19 11:00:00,miércoles,12,
856932909,SAN ISIDRO,Extinguido,608,13,2026-05-03 15:56,2026-05-03 17:32,2026-05-03 18:31,2026-05-03 15:59,2026-05-03 16:02,2026-05-03 16:02,2026-05-03 16:03,2026-05-03 16:27,2026-05-03 16:28,"0,57",-33.70888900756836,-70.96194458007812,CONAF,Pastizal,,Talagante,Talagante,Metropolitana,7,13 Metropolitana,2026-05-03 15:56:00,domingo,16,
788315797,LAS BATEAS,Extinguido,142,13,2025-11-24 13:22,2025-11-24 14:28,2025-11-24 14:30,2025-11-24 13:24,2025-11-24 13:25,2025-11-24 13:29,2025-11-24 13:29,2025-11-24 13:50,2025-11-24 13:52,"0,01",-32.95016860961914,-70.80477905273438,CONAF,Pastizal,,Tiltil,Chacabuco,Metropolitana,7,13 Metropolitana,2025-11-24 13:22:00,lunes,14,
829795647,LOS PEUMOS,Extinguido,97,14,2026-03-08 12:44,2026-03-08 14:44,2026-03-08 14:54,2026-03-08 12:46,2026-03-08 12:48,2026-03-08 12:48,2026-03-08 12:48,2026-03-08 12:48,2026-03-08 13:05,"0,05",-39.695003509521484,-72.72249603271484,CONAF,Pastizal,,Máfil,Valdivia,Los Ríos,13,14 Los Ríos,2026-03-08 12:44:00,domingo,13,
860686125,LOS COMENDADORES 2,Extinguido,615,13,2026-05-12 12:26,2026-05-12 14:16,2026-05-12 15:38,2026-05-12 12:28,2026-05-12 12:29,2026-05-12 12:29,2026-05-12 12:29,2026-05-12 13:12,2026-05-12 13:13,"0,20",-33.266639709472656,-70.78913879394531,CONAF,Pastizal,,Lampa,Chacabuco,Metropolitana,7,13 Metropolitana,2026-05-12 12:26:00,martes,13,
788837325,ESTERO LAMPA,Extinguido,146,13,2025-11-26 15:46,2025-11-26 16:30,2025-11-26 16:33,2025-11-26 15:48,2025-11-26 15:51,2025-11-26 15:51,2025-11-26 15:55,2025-11-26 16:10,2025-11-26 16:10,"0,01",-33.383331298828125,-70.83860778808594,CONAF,Desechos,,Lampa,Chacabuco,Metropolitana,7,13 Metropolitana,2025-11-26 15:46:00,miércoles,16,
862844692,EL ROSARIO,Extinguido,619,13,2026-05-17 15:53,2026-05-17 17:39,2026-05-17 17:56,2026-05-17 15:55,2026-05-17 15:56,2026-05-17 16:00,2026-05-17 16:00,2026-05-17 16:12,2026-05-17 16:12,"0,05",-33.70561218261719,-71.01261138916016,CONAF,Pastizal,,El Monte,Talagante,Metropolitana,7,13 Metropolitana,2026-05-17 15:53:00,domingo,16,
866370076,EL BOCO 10,Extinguido,574,5,2026-05-25 14:59,2026-05-25 16:19,2026-05-25 16:30,2026-05-25 15:01,2026-05-25 15:05,2026-05-25 15:05,2026-05-25 15:08,2026-05-25 15:12,2026-05-25 15:14,"0,50",-32.8767204284668,-71.26435852050781,CONAF,Pastizal,,Quillota,Quillota,Valparaíso,6,05 Valparaíso,2026-05-25 14:59:00,lunes,15,
859503044,BOSQUES DE IDAHUE (PARTICULAR),Extinguido,677,7,2026-04-10 11:58,2026-04-10 13:45,2026-04-10 14:43,2026-04-10 11:59,2026-04-10 11:59,2026-04-10 12:00,2026-04-10 12:01,2026-04-10 12:20,2026-04-10 12:45,"0,17",-34.93944549560547,-71.86722564697266,CONAF,Otras plantaciones,,Hualañé,Curicó,Maule,9,07 Maule,2026-04-10 11:58:00,viernes,12,
799128099,VILLA EL ESTERO,Extinguido,194,6,2026-01-01 14:47,2026-01-01 16:17,2026-01-01 17:24,2026-01-01 14:48,2026-01-01 14:49,2026-01-01 14:52,2026-01-01 14:52,2026-01-01 15:03,2026-01-01 15:03,"0,30",-34.457359313964844,-71.038330078125,CONAF,Pastizal,,San Vicente,Cachapoal,O'Higgins,8,06 O'Higgins,2026-01-01 14:47:00,jueves,15,
800103955,LA RAMIRANA 1,Extinguido,205,6,2026-01-04 14:38,2026-01-04 16:00,2026-01-04 17:00,2026-01-04 14:40,2026-01-04 14:41,2026-01-04 14:43,2026-01-04 14:44,2026-01-04 15:22,2026-01-04 15:30,"0,17",-34.116111755371094,-70.84583282470703,CONAF,Pastizal,,Rancagua,Cachapoal,O'Higgins,8,06 O'Higgins,2026-01-04 14:38:00,domingo,15,
792922344,EL DESCABEZADO 2,Extinguido,197,8,2025-12-10 23:57,2025-12-11 00:47,2025-12-11 01:45,2025-12-10 23:57,2025-12-10 23:57,2025-12-10 23:57,2025-12-10 23:57,2025-12-11 00:18,2025-12-11 00:28,"0,02",-37.51194381713867,-73.34416961669922,Empresa,,,Curanilahue,Arauco,Biobío,11,08 Biobío,2025-12-10 23:57:00,miércoles,0,
800135023,PAMPA IDAHUE,Extinguido,206,6,2026-01-04 16:20,2026-01-04 18:40,2026-01-04 19:02,2026-01-04 16:25,2026-01-04 16:30,2026-01-04 16:31,2026-01-04 16:40,2026-01-04 16:40,2026-01-04 17:40,"0,01",-34.31055450439453,-71.17500305175781,CONAF,Arbolado natural,,Coltauco,Cachapoal,O'Higgins,8,06 O'Higgins,2026-01-04 16:20:00,domingo,17,
817806666,LIHUENO SUR,Extinguido,516,7,2026-02-13 17:00,2026-02-13 19:23,2026-02-13 21:19,2026-02-13 17:01,2026-02-13 17:02,2026-02-13 17:03,2026-02-13 17:03,2026-02-13 17:19,2026-02-13 17:21,"2,40",-35.4283332824707,-71.28861236572266,CONAF,Pastizal,,Pelarco,Talca,Maule,9,07 Maule,2026-02-13 17:00:00,viernes,18,
843773092,TRUMAO,Extinguido,101,14,2026-04-05 15:38,2026-04-05 16:58,2026-04-05 17:04,2026-04-05 15:39,2026-04-05 15:40,2026-04-05 15:40,2026-04-05 15:40,2026-04-05 16:27,2026-04-05 16:28,"0,16",-40.34139633178711,-73.17284393310547,CONAF,Pastizal,,La Unión,Ranco,Los Ríos,13,14 Los Ríos,2026-04-05 15:38:00,domingo,16,
854159109,EL DESCABEZADO 2,Extinguido,609,8,2026-04-26 20:54,2026-04-26 21:32,2026-04-26 21:32,2026-04-26 20:54,2026-04-26 20:54,2026-04-26 20:54,2026-04-26 20:59,2026-04-26 21:19,2026-04-26 21:23,"0,00",-37.489723205566406,-73.33611297607422,Empresa,,,Curanilahue,Arauco,Biobío,11,08 Biobío,2026-04-26 20:54:00,domingo,21,
822501374,LATRAPUé 2,Extinguido,705,9,2026-02-22 16:33,2026-02-22 18:36,2026-02-22 19:44,2026-02-22 16:34,2026-02-22 16:35,2026-02-22 16:37,2026-02-22 16:37,2026-02-22 16:41,2026-02-22 16:41,"0,62",-38.82500076293945,-72.58860778808594,CONAF,Matorral,,Padre Las Casas,Cautín,La Araucanía,12,09 La Araucanía,2026-02-22 16:33:00,domingo,17,
859504081,SANTA TERESA,Extinguido,613,13,2026-05-09 17:09,2026-05-09 17:55,2026-05-09 19:00,2026-05-09 17:11,2026-05-09 17:12,2026-05-09 17:12,2026-05-09 17:13,2026-05-09 17:35,2026-05-09 17:39,"0,03",-33.06325149536133,-70.71097564697266,CONAF,Pastizal,,Colina,Chacabuco,Metropolitana,7,13 Metropolitana,2026-05-09 17:09:00,sábado,18,
800470101,EL CARDAL,Extinguido,208,6,2026-01-05 18:04,2026-01-05 19:10,2026-01-05 19:30,2026-01-05 18:06,2026-01-05 18:08,2026-01-05 18:08,2026-01-05 18:08,2026-01-05 18:30,2026-01-05 18:30,"0,10",-34.72364044189453,-71.96286010742188,CONAF,Pastizal,,Paredones,Cardenal Caro,O'Higgins,8,06 O'Higgins,2026-01-05 18:04:00,lunes,19,
800533184,LORETO 1,Extinguido,209,6,2026-01-05 23:00,2026-01-06 00:46,2026-01-06 01:04,2026-01-05 23:03,2026-01-05 23:05,2026-01-05 23:05,2026-01-05 23:07,2026-01-05 23:17,2026-01-05 23:17,"0,70",-34.427528381347656,-71.40819549560547,CONAF,Pastizal,,Peralillo,Colchagua,O'Higgins,8,06 O'Higgins,2026-01-05 23:00:00,lunes,0,
866365921,PARCELACION EL OLIVAR,Extinguido,436,16,2026-05-25 14:47,2026-05-25 16:10,2026-05-25 18:52,2026-05-25 14:48,2026-05-25 14:49,2026-05-25 14:50,2026-05-25 14:51,2026-05-25 15:01,2026-05-25 15:02,"0,50",-36.47305679321289,-72.3183364868164,CONAF,Pastizal,,San Nicolás,Punilla,Ñuble,10,16 Ñuble,2026-05-25 14:47:00,lunes,15,
786929618,MONTE LEON,Extinguido,70,16,2025-11-18 21:01,2025-11-18 22:08,2025-11-18 22:32,2025-11-18 21:03,2025-11-18 21:04,2025-11-18 21:05,2025-11-18 21:07,2025-11-18 21:32,2025-11-18 21:33,"0,20",-36.516944885253906,-72.06916809082031,CONAF,Pastizal,,San Carlos,Punilla,Ñuble,10,16 Ñuble,2025-11-18 21:01:00,martes,22,
802918440,SANTA ANA,Extinguido,228,6,2026-01-12 13:57,2026-01-12 15:50,2026-01-12 16:25,2026-01-12 13:58,2026-01-12 13:59,2026-01-12 14:03,2026-01-12 14:03,2026-01-12 14:35,2026-01-12 14:35,"1,00",-34.05878829956055,-70.70917510986328,CONAF,Pastizal,,Graneros,Cachapoal,O'Higgins,8,06 O'Higgins,2026-01-12 13:57:00,lunes,14,
859864200,FUNDO LA BANDERA,Extinguido,922,9,2026-05-10 14:39,2026-05-10 15:23,2026-05-10 15:23,2026-05-10 14:40,2026-05-10 14:41,,2026-05-10 14:43,2026-05-10 14:43,2026-05-10 14:43,"4,00",-38.822776794433594,-72.48666381835938,CONAF,Desechos,,Padre Las Casas,Cautín,La Araucanía,12,09 La Araucanía,2026-05-10 14:39:00,domingo,15,
803324703,SAN JAVIER DE LIHUEIMO,Extinguido,233,6,2026-01-13 14:14,2026-01-13 15:32,2026-01-13 15:44,2026-01-13 14:16,2026-01-13 14:16,2026-01-13 14:17,2026-01-13 14:17,2026-01-13 14:23,2026-01-13 14:23,"0,30",-34.4878044128418,-71.4643325805664,CONAF,Pastizal,,Peralillo,Colchagua,O'Higgins,8,06 O'Higgins,2026-01-13 14:14:00,martes,15,
823178949,CERRO EL BARóN - AUCO,Extinguido,421,5,2026-02-23 20:50,2026-02-24 00:23,2026-02-24 13:24,2026-02-23 20:54,2026-02-23 20:55,2026-02-23 20:56,2026-02-23 20:58,2026-02-23 21:02,2026-02-23 21:04,"1,60",-32.87922286987305,-70.67355346679688,CONAF,Pastizal,,Calle Larga,Los Andes,Valparaíso,6,05 Valparaíso,2026-02-23 20:50:00,lunes,21,
823113120,TABACO,Extinguido,553,7,2026-02-23 18:33,2026-02-23 19:02,2026-02-23 19:11,2026-02-23 18:34,2026-02-23 18:35,2026-02-23 18:36,2026-02-23 18:36,2026-02-23 18:48,2026-02-23 18:50,"0,10",-35.448333740234375,-71.63916778564453,CONAF,Pastizal,,Talca,Talca,Maule,9,07 Maule,2026-02-23 18:33:00,lunes,19,
823023859,EL PERAL,Extinguido,551,7,2026-02-23 15:46,2026-02-25 17:15,2026-02-25 19:59,2026-02-23 15:47,2026-02-23 15:48,2026-02-23 15:49,2026-02-23 15:49,2026-02-23 16:08,2026-02-23 16:14,"61,17",-35.176109313964844,-71.55694580078125,CONAF,Pastizal,,Sagrada Familia,Curicó,Maule,9,07 Maule,2026-02-23 15:46:00,lunes,16,cf7007767f093231b8176f1e6efba5ec1010e8f8194b4ff7748a6ec227bf8b33
786594515,90 - EL CASTILLO 2 (PARTICULAR),Extinguido,90,7,2025-11-17 16:24,2025-11-18 10:05,2025-11-18 14:53,2025-11-17 16:25,2025-11-17 16:26,2025-11-17 16:27,2025-11-17 16:27,2025-11-17 16:38,2025-11-17 16:40,"4,50",-35.92454147338867,-72.38755798339844,CONAF,Matorral,,Cauquenes,Cauquenes,Maule,9,07 Maule,2025-11-17 16:24:00,lunes,17,
830385755,MIGUEL ANGEL ALTO,Extinguido,457,5,2026-03-09 16:25,2026-03-09 17:55,2026-03-09 18:25,2026-03-09 16:28,2026-03-09 16:29,2026-03-09 16:30,2026-03-09 16:37,2026-03-09 16:44,2026-03-09 16:44,"0,19",-33.060157775878906,-71.62820434570312,CONAF,Pastizal,,Valparaíso,Valparaíso,Valparaíso,6,05 Valparaíso,2026-03-09 16:25:00,lunes,17,bbb22e7bff09ed6c5bb9442d9d4c277a6dae35dd2482d97458402c3e110a0ad6
820312229,EL DESIERTO,Extinguido,671,9,2026-02-18 13:45,2026-02-18 14:32,2026-02-18 14:43,2026-02-18 13:46,2026-02-18 13:47,2026-02-18 13:53,2026-02-18 13:53,2026-02-18 14:10,2026-02-18 14:10,"0,20",-38.246944427490234,-72.47611236572266,CONAF,Pastizal,,Victoria,Malleco,La Araucanía,12,09 La Araucanía,2026-02-18 13:45:00,miércoles,14,
824747507,PURINGUE RICO,Extinguido,90,14,2026-02-26 17:34,2026-02-26 19:15,2026-02-26 19:15,2026-02-26 17:38,2026-02-26 17:39,2026-02-26 17:41,2026-02-26 17:41,2026-02-26 17:52,2026-02-26 17:52,"0,06",-39.50691604614258,-73.00944519042969,CONAF,Pastizal,,Mariquina,Valdivia,Los Ríos,13,14 Los Ríos,2026-02-26 17:34:00,jueves,18,
790860150,MONTERILLA,Extinguido,167,7,2025-12-04 15:38,2025-12-04 17:49,2025-12-04 18:12,2025-12-04 15:39,2025-12-04 15:40,2025-12-04 15:41,2025-12-04 15:41,2025-12-04 16:01,2025-12-04 16:05,"0,50",-34.842498779296875,-71.10355377197266,CONAF,Pastizal,,Teno,Curicó,Maule,9,07 Maule,2025-12-04 15:38:00,jueves,16,
822351252,SANTA JUANA PART,Extinguido,699,9,2026-02-21 19:59,2026-02-21 21:15,2026-02-22 11:11,2026-02-21 20:00,2026-02-21 20:01,2026-02-21 20:05,2026-02-21 20:09,2026-02-21 20:15,2026-02-21 20:19,"0,17",-37.88472366333008,-72.85221862792969,CONAF,Matorral,,Los Sauces,Malleco,La Araucanía,12,09 La Araucanía,2026-02-21 19:59:00,sábado,20,
789048997,CHESQUE,Extinguido,18,14,2025-11-27 13:42,2025-11-27 14:51,2025-11-27 14:57,2025-11-27 13:43,2025-11-27 13:44,2025-11-27 13:47,2025-11-27 13:47,2025-11-27 14:05,2025-11-27 14:05,"0,01",-39.478919982910156,-72.26651763916016,CONAF,Plantación eucaliptus,,Panguipulli,Valdivia,Los Ríos,13,14 Los Ríos,2025-11-27 13:42:00,jueves,14,
853271597,JARDIN DOÑA VICTORIA,Extinguido,543,5,2026-04-25 11:58,2026-04-25 13:54,2026-04-25 13:54,2026-04-25 12:02,2026-04-25 12:03,2026-04-25 12:04,2026-04-25 12:04,2026-04-25 12:08,2026-04-25 12:10,"0,01",-32.56855773925781,-71.26166534423828,CONAF,Pastizal,,Zapallar,Petorca,Valparaíso,6,05 Valparaíso,2026-04-25 11:58:00,sábado,12,fe5bfa12ae0823e778f7bbb41505a147c28eac36d6426cb45d2bffd96eea7f5b
858664311,QUEBRADA DEL TIGRE,Extinguido,564,5,2026-05-07 17:06,2026-05-08 11:34,2026-05-08 15:03,2026-05-07 17:08,2026-05-07 17:10,2026-05-07 17:11,2026-05-07 17:13,2026-05-07 17:18,2026-05-07 17:44,"0,89",-32.52811050415039,-71.414306640625,CONAF,Matorral,,Papudo,Petorca,Valparaíso,6,05 Valparaíso,2026-05-07 17:06:00,jueves,18,135c05b8704b305c66f1cb84b9d68681ae54de82fe29b5e048f5c8fa289917c7
792265549,SANTA ISABEL DE RARINCO,Extinguido,198,8,2025-12-10 03:16,2025-12-10 04:41,2025-12-15 09:00,2025-12-10 03:17,2025-12-10 03:18,2025-12-10 03:20,2025-12-10 03:34,2025-12-10 04:10,2025-12-10 04:15,"0,57",-37.411109924316406,-72.25027465820312,Empresa,,,Los Angeles,Biobio,Biobío,11,08 Biobío,2025-12-10 03:16:00,miércoles,4,
850321008,FINAL CALLE MANUEL MONTT,Extinguido,531,5,2026-04-19 06:39,2026-04-19 09:30,2026-04-19 13:10,2026-04-19 06:41,2026-04-19 06:42,2026-04-19 06:44,2026-04-19 06:50,2026-04-19 07:00,2026-04-19 07:00,"0,04",-32.438751220703125,-71.23252868652344,CONAF,Pastizal,,La Ligua,Petorca,Valparaíso,6,05 Valparaíso,2026-04-19 06:39:00,domingo,7,7173148db766fcc7d6dbc7e96d292e7134783a8e6534d88fce5d11a1b799ccc6
791907241,LOS PATOS,Extinguido,185,7,2025-12-08 18:12,2025-12-08 19:05,2025-12-08 19:27,2025-12-08 18:13,2025-12-08 18:14,2025-12-08 18:17,2025-12-08 18:17,2025-12-08 18:27,2025-12-08 18:27,"0,80",-35.46833419799805,-71.65888977050781,CONAF,Pastizal,,Maule,Talca,Maule,9,07 Maule,2025-12-08 18:12:00,lunes,19,
792671694,EL TRANQUE,Extinguido,227,9,2025-12-11 14:35,2025-12-11 16:12,2025-12-11 16:53,2025-12-11 14:36,2025-12-11 14:37,2025-12-11 14:38,2025-12-11 14:38,2025-12-11 14:55,2025-12-11 14:55,"0,82",-37.78303146362305,-72.67285919189453,CONAF,Pastizal,,Angol,Malleco,La Araucanía,12,09 La Araucanía,2025-12-11 14:35:00,jueves,15,
832981228,CHILE NUESTRO 4,Extinguido,850,9,2026-03-14 18:07,2026-03-14 21:50,2026-03-15 07:50,2026-03-14 18:08,2026-03-14 18:09,2026-03-14 18:15,2026-03-14 18:15,2026-03-14 18:58,2026-03-14 18:58,"3,00",-38.496665954589844,-72.7316665649414,CONAF,Plantación eucaliptus,,Galvarino,Cautín,La Araucanía,12,09 La Araucanía,2026-03-14 18:07:00,sábado,19,
821855037,LOS MIGUELES 1,Extinguido,335,6,2026-02-21 13:08,2026-02-21 14:30,2026-02-21 14:55,2026-02-21 13:10,2026-02-21 13:13,2026-02-21 13:13,2026-02-21 13:13,2026-02-21 13:19,2026-02-21 13:20,"0,20",-34.395389556884766,-70.8375244140625,CONAF,Pastizal,,Rengo,Cachapoal,O'Higgins,8,06 O'Higgins,2026-02-21 13:08:00,sábado,14,
792448140,LAS BRUJAS 2,Extinguido,198,7,2025-12-10 17:32,2025-12-10 18:30,2025-12-10 18:49,2025-12-10 17:33,2025-12-10 17:34,2025-12-10 17:36,2025-12-10 17:36,2025-12-10 17:50,2025-12-10 17:54,"0,50",-35.246665954589844,-71.38694763183594,CONAF,Pastizal,,Río Claro,Talca,Maule,9,07 Maule,2025-12-10 17:32:00,miércoles,18,
824130490,SAN RAMON 2,Extinguido,729,9,2026-02-25 17:19,2026-03-01 21:21,2026-03-01 21:21,2026-02-25 17:20,2026-02-25 17:21,2026-02-25 17:34,2026-02-25 17:35,2026-02-25 17:48,2026-02-25 17:48,"108,04",-38.029720306396484,-72.51777648925781,CONAF,Pastizal,,Ercilla,Malleco,La Araucanía,12,09 La Araucanía,2026-02-25 17:19:00,miércoles,18,e59420894c786a43439345210b6532ea757e830ed49020d57b460def6211bf03
792406620,LAS ACACIAS,Extinguido,197,7,2025-12-10 15:12,2025-12-10 16:47,2025-12-10 18:34,2025-12-10 15:13,2025-12-10 15:14,2025-12-10 15:15,2025-12-10 15:15,2025-12-10 15:16,2025-12-10 15:20,"1,90",-34.959651947021484,-71.2066879272461,CONAF,Pastizal,,Curicó,Curicó,Maule,9,07 Maule,2025-12-10 15:12:00,miércoles,16,
822502958,QUEBRADA DE MACUL,Extinguido,472,13,2026-02-22 16:38,2026-02-23 14:25,2026-02-23 17:22,2026-02-22 16:41,2026-02-22 16:44,2026-02-22 16:46,2026-02-22 16:50,2026-02-22 17:10,2026-02-22 17:10,"10,00",-33.497779846191406,-70.508056640625,CONAF,Pastizal,,Peñalolén,Santiago,Metropolitana,7,13 Metropolitana,2026-02-22 16:38:00,domingo,17,
845744268,FORTIN ñIELOL 11,Extinguido,896,9,2026-04-09 16:28,2026-04-09 18:05,2026-04-10 11:17,2026-04-09 16:29,2026-04-09 16:30,2026-04-09 16:33,2026-04-09 16:33,2026-04-09 17:13,2026-04-09 17:13,"0,30",-38.49277877807617,-72.70083618164062,CONAF,Matorral,,Galvarino,Cautín,La Araucanía,12,09 La Araucanía,2026-04-09 16:28:00,jueves,17,
823500508,CAMPOS DE DOÑIHUE,Extinguido,347,6,2026-02-24 13:08,2026-02-24 14:24,2026-02-24 14:58,2026-02-24 13:10,2026-02-24 13:12,2026-02-24 13:12,2026-02-24 13:14,2026-02-24 13:20,2026-02-24 13:25,"0,90",-34.23502731323242,-70.95380401611328,CONAF,Pastizal,,Doñihue,Cachapoal,O'Higgins,8,06 O'Higgins,2026-02-24 13:08:00,martes,14,
823016692,AVENIDA LO CONTI,Extinguido,344,6,2026-02-23 15:22,2026-02-23 17:35,2026-02-23 17:55,2026-02-23 15:27,2026-02-23 15:27,2026-02-23 15:28,2026-02-23 15:30,2026-02-23 15:35,2026-02-23 15:35,"0,87",-34.19664001464844,-70.75971984863281,CONAF,Pastizal,,Olivar,Cachapoal,O'Higgins,8,06 O'Higgins,2026-02-23 15:22:00,lunes,16,
792080482,ANTIQUINA ALTO,Extinguido,158,8,2025-12-09 12:18,2025-12-09 15:50,2025-12-11 00:34,2025-12-09 12:20,2025-12-09 12:21,2025-12-09 12:22,2025-12-09 12:25,2025-12-09 12:59,2025-12-09 13:20,"5,50",-38.04722213745117,-73.3597183227539,CONAF,Desechos,,Cañete,Arauco,Biobío,11,08 Biobío,2025-12-09 12:18:00,martes,13,
849547138,PARCELA 19-22-23 LOLENCO PART.,Extinguido,919,9,2026-03-29 19:11,2026-03-29 21:40,2026-04-01 11:00,2026-03-29 19:12,2026-03-29 19:13,2026-03-29 19:18,2026-03-29 19:20,2026-03-29 21:00,2026-03-29 21:02,"0,70",-37.948612213134766,-72.5697250366211,CONAF,Plantación pino,,Angol,Malleco,La Araucanía,12,09 La Araucanía,2026-03-29 19:11:00,domingo,20,
820984539,QUECHUCO,Extinguido,87,14,2026-02-19 18:05,2026-02-19 20:50,2026-02-19 20:53,2026-02-19 18:09,2026-02-19 18:14,2026-02-19 18:16,2026-02-19 18:16,2026-02-19 18:25,2026-02-19 18:25,"2,21",-39.498016357421875,-72.99190521240234,CONAF,Cultivo agrícola,,Mariquina,Valdivia,Los Ríos,13,14 Los Ríos,2026-02-19 18:05:00,jueves,19,
863671924,LOS ALPES-QUILLAILEO,Extinguido,710,8,2026-05-19 14:43,2026-06-01 09:47,2026-06-01 09:47,2026-05-19 14:45,2026-05-19 14:46,2026-05-19 14:56,2026-05-19 14:59,2026-05-20 11:46,2026-05-25 11:17,"314,00",-37.646148681640625,-71.60165405273438,CONAF,Arbolado natural,,Santa Bárbara,Biobio,Biobío,11,08 Biobío,2026-05-19 14:43:00,martes,15,7ca7b83e447bd2e651bb8b6d424765fc479daba2039b38e677ae0217ada5aaf4
792497113,EL MIRADOR,Extinguido,65,10,2025-12-10 21:01,2025-12-11 01:59,2025-12-11 20:05,2025-12-10 21:02,2025-12-10 21:05,2025-12-10 21:20,2025-12-10 21:21,2025-12-10 21:24,2025-12-10 21:25,"0,50",-42.5565185546875,-73.761474609375,CONAF,Matorral,,Chonchi,Chiloé,Los Lagos,14,10 Los Lagos,2025-12-10 21:01:00,miércoles,22,
825967690,SANTA FANY,Extinguido,751,9,2026-03-01 00:10,2026-03-02 15:58,2026-03-02 15:58,2026-03-01 00:11,2026-03-01 01:12,2026-03-01 01:41,2026-03-01 01:41,2026-03-01 01:48,2026-03-01 01:48,"7,15",-38.21861267089844,-72.78500366210938,CONAF,Matorral,,Traiguén,Malleco,La Araucanía,12,09 La Araucanía,2026-03-01 00:10:00,domingo,1,
824289353,MAPUñANCO LOTE 1B RESERVA CORA N°1,Extinguido,527,9,2026-02-25 17:27,2026-02-25 19:40,2026-03-02 19:00,2026-02-25 17:28,2026-02-25 17:29,2026-02-25 17:30,2026-02-25 17:30,2026-02-25 17:53,2026-02-25 17:53,"0,22",-38.02305603027344,-72.10639190673828,Empresa,,,Collipulli,Malleco,La Araucanía,12,09 La Araucanía,2026-02-25 17:27:00,miércoles,18,
860298667,CUESTA LA SOSSA,Extinguido,92,4,2026-05-11 14:10,2026-05-11 18:10,2026-05-12 12:20,2026-05-11 14:14,2026-05-11 14:15,2026-05-11 14:17,2026-05-11 14:17,2026-05-11 14:54,2026-05-11 14:59,"0,12",-30.624610900878906,-71.35305786132812,CONAF,Pastizal,,Ovalle,Limarí,Coquimbo,5,04 Coquimbo,2026-05-11 14:10:00,lunes,15,
815137161,SANTA CLARA DE REñICO PART.,Extinguido,923,9,2026-01-10 18:00,2026-01-10 20:30,2026-01-22 11:00,2026-01-10 18:01,2026-01-10 18:02,2026-01-10 18:03,2026-01-10 18:04,2026-01-10 18:07,2026-01-10 18:07,"2,90",-38.2227783203125,-72.83833312988281,CONAF,Matorral,,Lumaco,Malleco,La Araucanía,12,09 La Araucanía,2026-01-10 18:00:00,sábado,19,
794082747,LA FLORIDA,Extinguido,226,7,2025-12-16 17:45,2025-12-16 19:23,2025-12-16 19:23,2025-12-16 17:46,2025-12-16 17:47,2025-12-16 17:50,2025-12-16 17:50,2025-12-16 18:21,2025-12-16 18:22,"0,10",-35.08383560180664,-71.12648010253906,CONAF,Pastizal,,Curicó,Curicó,Maule,9,07 Maule,2025-12-16 17:45:00,martes,18,
800170270,DOLLINCO,Extinguido,39,14,2026-01-04 16:24,2026-01-04 19:12,2026-01-04 19:14,2026-01-04 16:28,2026-01-04 16:29,2026-01-04 16:30,2026-01-04 16:30,2026-01-04 17:05,2026-01-04 17:05,"0,03",-40.1128044128418,-72.49725341796875,CONAF,Pastizal,,Futrono,Ranco,Los Ríos,13,14 Los Ríos,2026-01-04 16:24:00,domingo,17,
782314669,CUESTA EL MELON,Extinguido,26,5,2025-10-25 11:05,2025-10-25 12:23,2025-10-25 12:23,2025-10-25 11:10,2025-10-25 11:13,2025-10-25 11:14,2025-10-25 11:17,2025-10-25 11:39,2025-10-25 11:39,"0,10",-32.63197326660156,-71.23155975341797,CONAF,Pastizal,,Nogales,Quillota,Valparaíso,6,05 Valparaíso,2025-10-25 11:05:00,sábado,12,
822385577,TRIFTRIFCO,Extinguido,700,9,2026-02-22 12:16,2026-02-22 13:54,2026-02-22 19:44,2026-02-22 12:17,2026-02-22 12:18,2026-02-22 12:22,2026-02-22 12:22,2026-02-22 12:39,2026-02-22 12:39,"0,70",-38.43805694580078,-72.85861206054688,CONAF,Plantación eucaliptus,,Galvarino,Cautín,La Araucanía,12,09 La Araucanía,2026-02-22 12:16:00,domingo,13,
806166649,PITRACO,Extinguido,60,14,2026-01-19 15:37,2026-01-19 17:22,2026-01-20 15:09,2026-01-19 15:41,2026-01-19 15:41,2026-01-19 15:42,2026-01-19 15:42,2026-01-19 16:13,2026-01-19 16:13,"3,30",-39.73601150512695,-73.05765533447266,CONAF,Pastizal,,Valdivia,Valdivia,Los Ríos,13,14 Los Ríos,2026-01-19 15:37:00,lunes,16,
820936927,MARTINEZ DE ROSAS,Extinguido,680,9,2026-02-19 17:31,2026-02-19 18:27,2026-02-19 18:27,2026-02-19 17:32,2026-02-19 17:33,2026-02-19 17:38,2026-02-19 17:38,2026-02-19 18:08,2026-02-19 18:09,"0,04",-38.955833435058594,-72.758056640625,CONAF,Pastizal,,Freire,Cautín,La Araucanía,12,09 La Araucanía,2026-02-19 17:31:00,jueves,18,
821852010,TEGUALDA,Extinguido,469,13,2026-02-21 12:56,2026-02-21 13:30,2026-02-21 13:44,2026-02-21 12:59,2026-02-21 13:02,2026-02-21 13:02,2026-02-21 13:03,2026-02-21 13:22,2026-02-21 13:22,"0,02",-33.68491744995117,-70.94916534423828,CONAF,Pastizal,,Talagante,Talagante,Metropolitana,7,13 Metropolitana,2026-02-21 12:56:00,sábado,13,
787585651,CALBUCO,Extinguido,127,13,2025-11-21 13:38,2025-11-21 15:24,2025-11-21 15:47,2025-11-21 13:41,2025-11-21 13:44,2025-11-21 13:45,2025-11-21 13:49,2025-11-21 13:52,2025-11-21 13:52,"2,00",-33.29138946533203,-70.87777709960938,CONAF,Pastizal,,Lampa,Chacabuco,Metropolitana,7,13 Metropolitana,2025-11-21 13:38:00,viernes,14,
825780635,DOLLINCO,Extinguido,749,9,2026-02-28 15:59,2026-02-28 17:39,2026-02-28 17:39,2026-02-28 16:00,2026-02-28 16:01,2026-02-28 16:03,2026-02-28 16:04,2026-02-28 16:51,2026-02-28 16:51,"1,00",-38.64849853515625,-72.43419647216797,CONAF,Pastizal,,Lautaro,Cautín,La Araucanía,12,09 La Araucanía,2026-02-28 15:59:00,sábado,16,
860300164,CRUCE CAIMANES,Extinguido,91,4,2026-05-11 14:20,2026-05-11 15:48,2026-05-11 15:48,2026-05-11 14:22,2026-05-11 14:23,2026-05-11 14:24,2026-05-11 14:24,2026-05-11 14:47,2026-05-11 14:50,"0,02",-31.845027923583984,-71.3558578491211,CONAF,Pastizal,,Los Vilos,Choapa,Coquimbo,5,04 Coquimbo,2026-05-11 14:20:00,lunes,15,
860647316,PARCELA 114 VEGAS NORTE,Extinguido,93,4,2026-05-08 20:00,2026-05-08 23:40,2026-05-09 00:00,2026-05-08 20:08,2026-05-08 20:09,2026-05-08 20:09,2026-05-08 20:09,2026-05-08 20:21,2026-05-08 20:30,"0,03",-29.864778518676758,-71.2564697265625,CONAF,Pastizal,,La Serena,Elqui,Coquimbo,5,04 Coquimbo,2026-05-08 20:00:00,viernes,21,
792093289,SAN CAMILO,Extinguido,192,7,2025-12-09 13:17,2025-12-09 14:25,2025-12-09 14:27,2025-12-09 13:18,2025-12-09 13:19,2025-12-09 13:20,2025-12-09 13:20,2025-12-09 13:45,2025-12-09 13:47,"0,30",-35.16366958618164,-71.35257720947266,CONAF,Pastizal,,Río Claro,Talca,Maule,9,07 Maule,2025-12-09 13:17:00,martes,14,
800185461,AVENIDA LOS RIOS,Extinguido,304,8,2026-01-04 19:56,2026-01-04 20:46,2026-01-04 21:25,2026-01-04 19:58,2026-01-04 19:59,2026-01-04 20:00,2026-01-04 20:02,2026-01-04 20:27,2026-01-04 20:29,"0,01",-37.2591667175293,-72.70861053466797,CONAF,Pastizal,,Laja,Biobio,Biobío,11,08 Biobío,2026-01-04 19:56:00,domingo,20,
822471718,LLIUCO,Extinguido,706,9,2026-02-22 15:52,2026-02-22 17:50,2026-02-22 19:44,2026-02-22 15:53,2026-02-22 15:54,2026-02-22 15:55,2026-02-22 15:56,2026-02-22 16:38,2026-02-22 16:38,"2,50",-38.851112365722656,-73.00389099121094,CONAF,Matorral,,Nueva Imperial,Cautín,La Araucanía,12,09 La Araucanía,2026-02-22 15:52:00,domingo,16,
853644859,RUTA 5 KM 170,Extinguido,545,5,2026-04-25 22:30,2026-04-26 10:54,2026-04-26 10:55,2026-04-25 22:31,2026-04-25 22:31,2026-04-25 22:32,2026-04-25 22:32,2026-04-25 22:55,2026-04-25 22:55,"0,02",-32.354278564453125,-71.42094421386719,CONAF,Pastizal,,La Ligua,Petorca,Valparaíso,6,05 Valparaíso,2026-04-25 22:30:00,sábado,23,72a756214ca141bf27bb710c089bee7653a0263ac0ffe4c8bd59a5a7b295a888
821438145,PAILLAHUE 4,Extinguido,686,9,2026-02-20 16:31,2026-02-21 13:04,2026-02-21 17:36,2026-02-20 16:32,2026-02-20 16:33,2026-02-20 16:35,2026-02-20 16:35,2026-02-20 16:43,2026-02-20 16:43,"5,00",-38.407222747802734,-72.74361419677734,CONAF,Matorral,,Galvarino,Cautín,La Araucanía,12,09 La Araucanía,2026-02-20 16:31:00,viernes,17,
801985218,LOS MAITENES- HIJUELAS,Extinguido,269,5,2026-01-09 20:24,2026-01-10 11:25,2026-01-10 11:25,2026-01-09 20:28,2026-01-09 20:29,2026-01-09 20:30,2026-01-09 20:34,2026-01-09 20:58,2026-01-09 21:10,"0,01",-32.837833404541016,-71.09744262695312,CONAF,Cultivo agrícola,,Hijuelas,Quillota,Valparaíso,6,05 Valparaíso,2026-01-09 20:24:00,viernes,21,
815716205,627 - PARCELA 15 REQUEN,Extinguido,518,9,2026-02-09 16:37,,2026-02-10 12:00,2026-02-09 16:37,2026-02-09 16:37,2026-02-09 17:00,2026-02-09 17:05,2026-02-09 17:48,2026-02-09 17:50,"121,73",-38.01944351196289,-72.55583190917969,Empresa,,,Ercilla,Malleco,La Araucanía,12,09 La Araucanía,2026-02-09 16:37:00,lunes,17,bc8ac9a9878c1c346184e9713d11332abec0faf1cccb5189c03c6e1c5ae944ff
857290516,VALLE VERDE MAR,Extinguido,556,5,2026-05-04 13:22,2026-05-04 14:42,2026-05-04 15:42,2026-05-04 13:24,2026-05-04 13:26,2026-05-04 13:27,2026-05-04 13:30,2026-05-04 13:46,2026-05-04 13:49,"0,13",-32.9896125793457,-71.42185974121094,CONAF,Pastizal,,Limache,Marga Marga,Valparaíso,6,05 Valparaíso,2026-05-04 13:22:00,lunes,14,
795179924,LA GLORIA,Extinguido,247,7,2025-12-19 19:46,2025-12-19 21:29,2025-12-19 21:46,2025-12-19 19:47,2025-12-19 19:48,2025-12-19 19:50,2025-12-19 19:50,2025-12-19 20:02,2025-12-19 20:04,"0,80",-36.12592315673828,-71.8267822265625,CONAF,Pastizal,,Parral,Linares,Maule,9,07 Maule,2025-12-19 19:46:00,viernes,20,
818372699,EL CARMEN 3 (2),Extinguido,646,9,2026-02-14 16:56,2026-02-15 13:55,2026-02-16 13:26,2026-02-14 16:57,2026-02-14 16:58,2026-02-14 17:50,2026-02-14 17:50,2026-02-14 17:50,2026-02-14 17:50,"36,05",-38.58583450317383,-72.74444580078125,CONAF,Plantación eucaliptus,,Temuco,Cautín,La Araucanía,12,09 La Araucanía,2026-02-14 16:56:00,sábado,17,59fe64d43a350f01f596f199662f4db6d1b313c1322437a7dd8a646a6087678e
824656829,CALFUCO,Extinguido,740,9,2026-02-26 15:56,2026-02-26 21:09,2026-02-28 08:05,2026-02-26 15:57,2026-02-26 15:58,2026-02-26 15:58,2026-02-26 15:58,2026-02-26 16:10,2026-02-26 16:10,"11,61",-38.93138885498047,-72.69305419921875,CONAF,Arbolado natural,,Freire,Cautín,La Araucanía,12,09 La Araucanía,2026-02-26 15:56:00,jueves,16,708f8f280be3bf602f0947a74a88874ee6d4e4c0464433c4360805ff4062db79
794091844,CONUCO XVI,Extinguido,127,16,2025-12-16 18:16,2025-12-17 13:39,2025-12-18 16:40,2025-12-16 18:18,2025-12-16 18:19,2025-12-16 18:20,2025-12-16 18:20,2025-12-16 18:35,2025-12-16 18:35,"9,63",-36.65416717529297,-72.70777893066406,CONAF,Pastizal,,Ránquil,Itata,Ñuble,10,16 Ñuble,2025-12-16 18:16:00,martes,19,fbd13547e629f089847f4ccc4a0eae9b3b3dfc269834b2d61fb0d9b274aead1d
792464191,HIJUELA HUACHA,Extinguido,200,9,2025-12-10 18:21,2025-12-11 14:15,2025-12-16 13:54,2025-12-10 18:21,2025-12-10 18:21,2025-12-10 18:21,2025-12-10 18:27,2025-12-10 19:24,2025-12-10 19:24,"6,40",-38.475555419921875,-72.6852798461914,Empresa,,,Galvarino,Cautín,La Araucanía,12,09 La Araucanía,2025-12-10 18:21:00,miércoles,19,
823060340,LONGOVILO,Extinguido,475,13,2026-02-23 16:39,2026-02-23 18:32,2026-02-23 19:21,2026-02-23 16:42,2026-02-23 16:43,2026-02-23 16:45,2026-02-23 16:48,2026-02-23 16:57,2026-02-23 16:57,"1,20",-33.90650177001953,-71.41325378417969,CONAF,Pastizal,,San Pedro,Melipilla,Metropolitana,7,13 Metropolitana,2026-02-23 16:39:00,lunes,17,
826595777,EL NOGAL,Extinguido,537,14,2026-01-30 15:27,2026-01-30 19:48,2026-01-30 21:24,2026-01-30 15:27,2026-01-30 15:27,2026-01-30 15:27,2026-01-30 15:32,2026-01-30 19:45,2026-01-30 19:47,"0,00",-39.40861129760742,-73.01611328125,Empresa,Matorral,,Mariquina,Valdivia,Los Ríos,13,14 Los Ríos,2026-01-30 15:27:00,viernes,16,
789776626,ACCESO SUR,Extinguido,169,13,2025-11-30 17:00,2025-11-30 18:53,2025-11-30 18:54,2025-11-30 17:04,2025-11-30 17:05,2025-11-30 17:05,2025-11-30 17:05,2025-11-30 17:10,2025-11-30 17:10,"0,02",-33.643611907958984,-70.65922546386719,CONAF,Pastizal,,San Bernardo,Maipo,Metropolitana,7,13 Metropolitana,2025-11-30 17:00:00,domingo,18,
803019261,GRANEROS FBB (PARTICULAR),Extinguido,221,16,2026-01-12 13:51,2026-01-12 15:00,2026-01-12 15:35,2026-01-12 13:51,2026-01-12 13:51,2026-01-12 13:51,2026-01-12 13:52,2026-01-12 14:33,2026-01-12 14:37,"0,00",-36.41694259643555,-72.84388732910156,CONAF,Pastizal,,Coelemu,Itata,Ñuble,10,16 Ñuble,2026-01-12 13:51:00,lunes,14,
832879601,COSTANERA EL SALVADOR 2,Extinguido,464,5,2026-03-14 12:57,2026-03-14 14:28,2026-03-14 14:29,2026-03-14 13:00,2026-03-14 13:01,2026-03-14 13:02,2026-03-14 13:05,2026-03-14 13:12,2026-03-14 13:14,"0,09",-32.780704498291016,-71.19569396972656,CONAF,Pastizal,,Calera,Quillota,Valparaíso,6,05 Valparaíso,2026-03-14 12:57:00,sábado,13,ce10b38182824899236f0783f4f2773e58c5bab67ff5926576cf35f63927f236
849527209,RAUTEN BAJO,Extinguido,527,5,2026-04-17 12:21,2026-04-17 14:10,2026-04-17 14:10,2026-04-17 12:24,2026-04-17 12:25,2026-04-17 12:26,2026-04-17 12:26,2026-04-17 12:50,2026-04-17 12:50,"0,08",-32.9095573425293,-71.34371948242188,CONAF,Pastizal,,Quillota,Quillota,Valparaíso,6,05 Valparaíso,2026-04-17 12:21:00,viernes,13,f9c657dbc66450403200c223e27e81c4cc3504163ef9fddaa078c4dc00597a9f
787615211,SECTOR LAS CATITAS,Extinguido,98,5,2025-11-21 15:21,2025-11-21 16:27,2025-11-21 17:05,2025-11-21 15:24,2025-11-21 15:27,2025-11-21 15:28,2025-11-21 15:29,2025-11-21 15:35,2025-11-21 15:38,"0,04",-32.726165771484375,-71.41925048828125,CONAF,Pastizal,,Puchuncavi,Valparaíso,Valparaíso,6,05 Valparaíso,2025-11-21 15:21:00,viernes,16,
788238609,FUNDO SEMINARIO 4,Extinguido,106,5,2025-11-24 06:20,2025-11-29 10:53,2025-12-17 09:20,2025-11-24 06:25,2025-11-24 06:26,2025-11-24 06:27,2025-11-24 06:28,2025-11-24 06:41,2025-11-24 06:43,"0,18",-33.42449951171875,-71.68333435058594,CONAF,Desechos,,El Quisco,San Antonio,Valparaíso,6,05 Valparaíso,2025-11-24 06:20:00,lunes,7,
821946032,EL PORVENIR (2011),Extinguido,503,9,2026-01-09 23:35,2026-01-10 00:50,2026-01-10 12:30,2026-01-09 23:35,2026-01-09 23:35,2026-01-09 23:35,2026-01-09 23:36,2026-01-10 00:05,2026-01-10 00:06,"0,30",-38.606109619140625,-72.8727798461914,Empresa,,,Cholchol,Cautín,La Araucanía,12,09 La Araucanía,2026-01-09 23:35:00,viernes,0,
804708766,EL MACAL ALTO,Extinguido,237,16,2026-01-16 17:58,2026-01-17 17:41,2026-01-24 11:43,2026-01-16 18:00,2026-01-16 18:01,2026-01-16 18:02,2026-01-16 18:03,2026-01-16 18:29,2026-01-16 18:29,"3,50",-36.532222747802734,-71.52777862548828,CONAF,Arbolado natural,,San Fabián,Punilla,Ñuble,10,16 Ñuble,2026-01-16 17:58:00,viernes,18,
816282398,PEAJE TRONCAL SUR,Extinguido,368,5,2026-02-10 19:25,2026-02-10 20:05,2026-02-10 20:15,2026-02-10 19:31,2026-02-10 19:32,2026-02-10 19:33,2026-02-10 19:35,2026-02-10 19:35,2026-02-10 19:35,"0,03",-33.06399917602539,-71.4296646118164,CONAF,Pastizal,,Quilpué,Marga Marga,Valparaíso,6,05 Valparaíso,2026-02-10 19:25:00,martes,20,7fe114bcef9640c0d5b25c559b0ed64db94bde99adabdec2c931d8bd9086819a
789715645,LO BOZA,Extinguido,164,13,2025-11-30 12:27,2025-11-30 13:25,2025-11-30 13:34,2025-11-30 12:30,2025-11-30 12:32,2025-11-30 12:35,2025-11-30 12:36,2025-11-30 12:57,2025-11-30 12:59,"0,30",-33.40072250366211,-70.73252868652344,CONAF,Pastizal,,Renca,Santiago,Metropolitana,7,13 Metropolitana,2025-11-30 12:27:00,domingo,13,
792474889,VIÑA DEL MAR,Extinguido,199,7,2025-12-10 19:22,2025-12-10 20:13,2025-12-10 20:54,2025-12-10 19:23,2025-12-10 19:24,2025-12-10 19:26,2025-12-10 19:26,2025-12-10 19:27,2025-12-10 19:27,"1,70",-36.131256103515625,-71.83560180664062,CONAF,Pastizal,,Parral,Linares,Maule,9,07 Maule,2025-12-10 19:22:00,miércoles,20,
839880933,SAN ISIDRO,Extinguido,494,5,2026-03-28 15:38,2026-03-28 16:29,2026-03-28 16:51,2026-03-28 15:41,2026-03-28 15:43,2026-03-28 15:44,2026-03-28 15:46,2026-03-28 15:47,2026-03-28 15:48,"0,11",-32.900333404541016,-71.2483901977539,CONAF,Pastizal,,Quillota,Quillota,Valparaíso,6,05 Valparaíso,2026-03-28 15:38:00,sábado,16,
847663414,RAMON ANGEL JARA,Extinguido,518,5,2026-04-13 15:53,2026-04-13 16:31,2026-04-13 17:00,2026-04-13 15:56,2026-04-13 15:59,2026-04-13 16:02,2026-04-13 16:03,2026-04-13 16:15,2026-04-13 16:17,"0,01",-33.07230758666992,-71.40255737304688,CONAF,Pastizal,,Quilpué,Marga Marga,Valparaíso,6,05 Valparaíso,2026-04-13 15:53:00,lunes,16,
791904216,CURTIDURíA,Extinguido,186,7,2025-12-08 18:00,2025-12-08 19:15,2025-12-08 19:36,2025-12-08 18:01,2025-12-08 18:02,2025-12-08 18:03,2025-12-08 18:03,2025-12-08 18:30,2025-12-08 18:31,"0,50",-35.45722198486328,-71.91500091552734,CONAF,Matorral,,Pencahue,Talca,Maule,9,07 Maule,2025-12-08 18:00:00,lunes,19,
799814878,GENERAL DEL CANTO,Extinguido,252,5,2026-01-03 15:13,2026-01-03 16:00,2026-01-03 16:00,2026-01-03 15:17,2026-01-03 15:20,2026-01-03 15:23,2026-01-03 15:26,2026-01-03 15:39,2026-01-03 15:41,"0,25",-32.831390380859375,-70.5770263671875,CONAF,Pastizal,,Los Andes,Los Andes,Valparaíso,6,05 Valparaíso,2026-01-03 15:13:00,sábado,16,be8c65c827c505114790638d5c6647302c50e3b3198c95aa909100675fc7cd75
792094543,PUERTAS DE FIERRO 3,Extinguido,115,6,2025-12-09 13:20,2025-12-09 14:53,2025-12-09 16:50,2025-12-09 13:23,2025-12-09 13:26,2025-12-09 13:28,2025-12-09 13:31,2025-12-09 13:57,2025-12-09 13:57,"4,80",-34.16524887084961,-70.80533599853516,CONAF,Pastizal,,Rancagua,Cachapoal,O'Higgins,8,06 O'Higgins,2025-12-09 13:20:00,martes,14,
843309744,SANTA MARGARITA,Extinguido,672,8,2026-04-04 16:42,2026-04-04 17:51,2026-04-04 22:03,2026-04-04 16:44,2026-04-04 16:45,2026-04-04 16:45,2026-04-04 16:47,2026-04-04 17:10,2026-04-04 17:14,"0,10",-37.795555114746094,-73.37527465820312,CONAF,Matorral,,Cañete,Arauco,Biobío,11,08 Biobío,2026-04-04 16:42:00,sábado,17,
792128077,CERRO LA VIRGEN,Extinguido,214,13,2025-12-09 15:18,2025-12-09 19:02,2025-12-10 17:58,2025-12-09 15:20,2025-12-09 15:21,2025-12-09 15:26,2025-12-09 15:26,2025-12-09 15:48,2025-12-09 15:48,"8,00",-33.577667236328125,-70.90460968017578,CONAF,Pastizal,,Padre Hurtado,Talagante,Metropolitana,7,13 Metropolitana,2025-12-09 15:18:00,martes,16,
841325633,AGUAS CLARAS,Extinguido,561,13,2026-03-31 14:16,2026-03-31 17:24,2026-03-31 17:27,2026-03-31 14:18,2026-03-31 14:20,2026-03-31 14:22,2026-03-31 14:22,2026-03-31 14:29,2026-03-31 14:37,"0,03",-33.35749816894531,-70.80410766601562,CONAF,Basural,,Pudahuel,Santiago,Metropolitana,7,13 Metropolitana,2026-03-31 14:16:00,martes,15,
791858898,RN VILLARRICA - PANQUI 1,Extinguido,207,9,2025-12-08 15:10,2025-12-09 14:01,2025-12-10 23:14,2025-12-08 15:11,2025-12-08 15:12,2025-12-08 15:20,2025-12-08 15:28,2025-12-08 16:00,2025-12-08 16:15,"0,01",-39.246944427490234,-71.52166748046875,CONAF,Arbolado natural,Villarrica,Curarrehue,Cautín,La Araucanía,12,09 La Araucanía,2025-12-08 15:10:00,lunes,16,
861561489,EMBALSE COLLAGUE,Extinguido,566,5,2026-05-14 14:15,2026-05-14 15:11,2026-05-14 15:12,2026-05-14 14:18,2026-05-14 14:20,2026-05-14 14:23,2026-05-14 14:24,2026-05-14 14:59,2026-05-14 15:04,"0,02",-32.647010803222656,-71.2196044921875,CONAF,Pastizal,,Nogales,Quillota,Valparaíso,6,05 Valparaíso,2026-05-14 14:15:00,jueves,15,
821938105,LOS PIMIENTOS,Extinguido,146,10,2026-02-21 15:50,2026-02-25 12:59,2026-02-25 15:18,2026-02-21 15:55,2026-02-21 15:59,2026-02-21 15:59,2026-02-21 15:59,2026-02-21 16:04,2026-02-21 16:05,"0,20",-41.461387634277344,-72.89494323730469,CONAF,Matorral,,Puerto Montt,Llanquihue,Los Lagos,14,10 Los Lagos,2026-02-21 15:50:00,sábado,16,
821941626,SAN FRANCISCO DE HUIQUE,Extinguido,336,6,2026-02-21 16:07,2026-02-21 16:32,2026-02-21 17:05,2026-02-21 16:09,2026-02-21 16:09,2026-02-21 16:10,2026-02-21 16:11,2026-02-21 16:22,2026-02-21 16:22,"0,01",-34.44469451904297,-71.36841583251953,CONAF,Pastizal,,Palmilla,Colchagua,O'Higgins,8,06 O'Higgins,2026-02-21 16:07:00,sábado,17,
805186881,PUENTE PIDUCO,Extinguido,392,7,2026-01-17 18:57,2026-01-17 19:14,2026-01-17 19:30,2026-01-17 18:58,2026-01-17 18:59,2026-01-17 19:00,2026-01-17 19:00,2026-01-17 19:01,2026-01-17 19:02,"0,20",-35.4244499206543,-71.67613983154297,CONAF,Pastizal,,Talca,Talca,Maule,9,07 Maule,2026-01-17 18:57:00,sábado,19,
792105856,FILOCO 2,Extinguido,216,9,2025-12-09 13:57,2025-12-09 18:38,2025-12-09 21:28,2025-12-09 13:58,2025-12-09 13:59,2025-12-09 14:02,2025-12-09 14:02,2025-12-09 14:50,2025-12-09 14:50,"3,50",-39.03889083862305,-72.8116683959961,CONAF,Pastizal,,Pitrufquén,Cautín,La Araucanía,12,09 La Araucanía,2025-12-09 13:57:00,martes,14,
794396084,QUECHUCAHUIN,Extinguido,243,9,2025-12-17 14:58,2025-12-17 17:12,2025-12-17 17:15,2025-12-17 14:59,2025-12-17 15:00,2025-12-17 15:01,2025-12-17 15:02,2025-12-17 15:05,2025-12-17 15:05,"0,10",-38.89073944091797,-73.25231170654297,CONAF,Matorral,,Saavedra,Cautín,La Araucanía,12,09 La Araucanía,2025-12-17 14:58:00,miércoles,15,
866815020,CALLE LAS PALMAS,Extinguido,576,5,2026-05-26 15:16,2026-05-26 17:01,2026-05-26 17:33,2026-05-26 15:19,2026-05-26 15:22,2026-05-26 15:23,2026-05-26 15:48,2026-05-26 16:16,2026-05-26 16:35,"0,02",-32.68463897705078,-71.19403076171875,CONAF,Pastizal,,Nogales,Quillota,Valparaíso,6,05 Valparaíso,2026-05-26 15:16:00,martes,16,
805125353,TOQUIHUE,Extinguido,436,9,2026-01-17 16:50,2026-01-17 19:50,2026-01-18 09:01,2026-01-17 16:51,2026-01-17 16:52,2026-01-17 16:56,2026-01-17 16:57,2026-01-17 17:10,2026-01-17 17:10,"20,00",-38.22083282470703,-72.4366683959961,CONAF,Cultivo agrícola,,Victoria,Malleco,La Araucanía,12,09 La Araucanía,2026-01-17 16:50:00,sábado,17,
802311541,SANTA ISABEL 2,Extinguido,343,7,2026-01-10 19:49,2026-01-10 22:08,2026-01-10 22:45,2026-01-10 19:50,2026-01-10 19:51,2026-01-10 19:53,2026-01-10 19:53,2026-01-10 21:00,2026-01-10 21:27,"1,90",-36.1220817565918,-71.77874755859375,CONAF,Pastizal,,Retiro,Linares,Maule,9,07 Maule,2026-01-10 19:49:00,sábado,20,
792110308,SAN CARLOS (CAUTIN),Extinguido,207,9,2025-12-09 13:57,2025-12-09 17:30,2025-12-13 15:00,2025-12-09 13:58,2025-12-09 13:59,2025-12-09 14:01,2025-12-09 14:05,2025-12-09 15:10,2025-12-09 15:19,"0,20",-38.718055725097656,-72.93805694580078,Empresa,,,Nueva Imperial,Cautín,La Araucanía,12,09 La Araucanía,2025-12-09 13:57:00,martes,14,
792382781,CAMINO CHICAUMA 3,Extinguido,218,13,2025-12-10 13:51,2025-12-10 15:10,2025-12-10 15:12,2025-12-10 13:54,2025-12-10 13:57,2025-12-10 14:00,2025-12-10 14:00,2025-12-10 14:21,2025-12-10 14:23,"0,10",-33.24388885498047,-70.90666961669922,CONAF,Pastizal,,Lampa,Chacabuco,Metropolitana,7,13 Metropolitana,2025-12-10 13:51:00,miércoles,14,
789986186,LINDEROS,Extinguido,171,13,2025-12-01 14:24,2025-12-01 16:06,2025-12-01 16:22,2025-12-01 14:26,2025-12-01 14:27,2025-12-01 14:34,2025-12-01 14:34,2025-12-01 15:01,2025-12-01 15:01,"2,50",-33.80622100830078,-70.71058654785156,CONAF,Pastizal,,Paine,Maipo,Metropolitana,7,13 Metropolitana,2025-12-01 14:24:00,lunes,15,
792164351,PARQUE BELLAVISTA,Extinguido,63,10,2025-12-09 17:22,2025-12-09 20:03,2025-12-09 20:03,2025-12-09 17:23,2025-12-09 17:24,2025-12-09 17:24,2025-12-09 17:25,2025-12-09 18:09,2025-12-09 18:20,"0,12",-40.59362030029297,-73.10474395751953,CONAF,Matorral,,Osorno,Osorno,Los Lagos,14,10 Los Lagos,2025-12-09 17:22:00,martes,18,
792130315,TUNCA DEL MEDIO,Extinguido,116,6,2025-12-09 15:28,2025-12-09 16:15,2025-12-09 18:26,2025-12-09 15:29,2025-12-09 15:30,2025-12-09 15:32,2025-12-09 15:32,2025-12-09 15:48,2025-12-09 15:48,"1,00",-34.39950180053711,-71.09107971191406,CONAF,Pastizal,,San Vicente,Cachapoal,O'Higgins,8,06 O'Higgins,2025-12-09 15:28:00,martes,16,
861527899,EL SAUCE 2,Extinguido,616,13,2026-05-14 11:43,2026-05-14 14:03,2026-05-14 14:07,2026-05-14 11:45,2026-05-14 11:47,2026-05-14 11:47,2026-05-14 11:49,2026-05-14 11:55,2026-05-14 11:56,"0,40",-33.095611572265625,-70.92585754394531,CONAF,Pastizal,,Tiltil,Chacabuco,Metropolitana,7,13 Metropolitana,2026-05-14 11:43:00,jueves,12,
784205649,CURIMON,Extinguido,44,5,2025-11-05 13:22,2025-11-05 16:10,2025-11-05 16:24,2025-11-05 13:26,2025-11-05 13:28,2025-11-05 13:29,2025-11-05 13:34,2025-11-05 15:22,2025-11-05 15:32,"0,70",-32.77888870239258,-70.67427825927734,CONAF,Pastizal,,Santa María,San Felipe de Aconcagua,Valparaíso,6,05 Valparaíso,2025-11-05 13:22:00,miércoles,14,
792735453,LOMAS DE QUILICURA,Extinguido,224,13,2025-12-11 18:33,2025-12-11 19:42,2025-12-11 19:44,2025-12-11 18:35,2025-12-11 18:39,2025-12-11 18:41,2025-12-11 18:43,2025-12-11 19:01,2025-12-11 19:02,"0,10",-33.347694396972656,-70.75724792480469,CONAF,Pastizal,,Quilicura,Santiago,Metropolitana,7,13 Metropolitana,2025-12-11 18:33:00,jueves,19,
862025022,BONANZA Y SAN FRANCISCO,Extinguido,613,8,2026-05-15 09:40,2026-05-15 11:15,2026-05-15 12:00,2026-05-15 09:40,2026-05-15 09:40,2026-05-15 09:43,2026-05-15 09:45,2026-05-15 10:30,2026-05-15 10:35,"0,05",-37.92972183227539,-72.12139129638672,Empresa,,,Mulchén,Biobio,Biobío,11,08 Biobío,2026-05-15 09:40:00,viernes,10,
792171559,VALLE LOS ARTISTAS,Extinguido,117,6,2025-12-09 17:45,2025-12-09 19:05,2025-12-09 19:40,2025-12-09 17:47,2025-12-09 17:48,2025-12-09 17:49,2025-12-09 17:50,2025-12-09 18:09,2025-12-09 18:09,"1,00",-34.873111724853516,-71.69102478027344,CONAF,Cultivo agrícola,,Lolol,Colchagua,O'Higgins,8,06 O'Higgins,2025-12-09 17:45:00,martes,18,
864175403,RUCAHUE NORTE,Extinguido,933,9,2026-05-20 17:00,2026-05-20 17:49,2026-05-20 17:50,2026-05-20 17:01,2026-05-20 17:02,2026-05-20 17:09,2026-05-20 17:10,2026-05-20 17:44,2026-05-20 17:44,"0,01",-38.906944274902344,-72.67778015136719,CONAF,Pastizal,,Freire,Cautín,La Araucanía,12,09 La Araucanía,2026-05-20 17:00:00,miércoles,18,
860332018,CERRO VIZCACHAS,Extinguido,94,4,2026-05-11 14:40,2026-05-14 14:13,2026-05-19 14:50,,2026-05-11 14:40,,2026-05-12 08:26,2026-05-14 14:01,2026-05-14 14:10,"6,00",-31.985471725463867,-71.2612533569336,CONAF,,,Los Vilos,Choapa,Coquimbo,5,04 Coquimbo,2026-05-11 14:40:00,lunes,15,6ad2a0eb8b3db822052c8e210db9d239d8149018ae9ba1381da723565ba94cf9
792435636,CONVENTO VIEJO 1,Extinguido,123,6,2025-12-10 16:40,2025-12-10 19:05,2025-12-11 12:15,2025-12-10 16:43,2025-12-10 16:45,2025-12-10 16:45,2025-12-10 16:48,2025-12-10 17:24,2025-12-10 17:40,"0,20",-34.72633361816406,-71.10855865478516,CONAF,Matorral,,Chimbarongo,Colchagua,O'Higgins,8,06 O'Higgins,2025-12-10 16:40:00,miércoles,17,
862026843,BARRIO ACEVEDO,Extinguido,679,7,2026-05-15 16:28,2026-05-15 20:31,2026-05-16 13:04,2026-05-15 16:29,2026-05-15 16:30,2026-05-15 16:32,2026-05-15 16:32,2026-05-15 18:03,2026-05-15 18:06,"9,00",-35.22127914428711,-72.31539154052734,CONAF,Pastizal,,Constitución,Talca,Maule,9,07 Maule,2026-05-15 16:28:00,viernes,17,
782592043,OL-PELINES Y LOICA SUR BIOBIO (PARTICULAR),Extinguido,13,8,2025-10-21 18:19,2025-10-21 19:30,2025-10-22 08:53,2025-10-21 18:21,2025-10-21 18:22,2025-10-21 18:23,2025-10-21 18:28,2025-10-21 18:54,2025-10-21 19:00,"0,02",-36.93944549560547,-72.75749969482422,CONAF,Matorral,,Florida,Concepción,Biobío,11,08 Biobío,2025-10-21 18:19:00,martes,19,
786805143,CAMARON,Extinguido,67,8,2025-11-11 14:22,2025-11-11 14:50,2025-11-11 15:30,2025-11-11 14:22,2025-11-11 14:22,2025-11-11 14:23,2025-11-11 14:24,2025-11-11 14:30,2025-11-11 14:31,"0,03",-37.61916732788086,-73.65528106689453,Empresa,,,Lebu,Arauco,Biobío,11,08 Biobío,2025-11-11 14:22:00,martes,15,
844218858,RINCONADA S,Extinguido,592,8,2026-04-05 18:28,2026-04-05 21:33,2026-04-06 10:10,2026-04-05 18:28,2026-04-05 18:28,2026-04-05 18:29,2026-04-05 18:30,2026-04-05 20:28,2026-04-05 20:33,"0,10",-36.65416717529297,-72.94305419921875,Empresa,,,Tomé,Concepción,Biobío,11,08 Biobío,2026-04-05 18:28:00,domingo,19,
786870802,FAMAE,Extinguido,116,13,2025-11-18 17:05,2025-11-18 18:49,2025-11-18 19:05,2025-11-18 17:08,2025-11-18 17:11,2025-11-18 17:13,2025-11-18 17:13,2025-11-18 17:34,2025-11-18 17:36,"1,00",-33.642250061035156,-70.9316635131836,CONAF,Pastizal,,Talagante,Talagante,Metropolitana,7,13 Metropolitana,2025-11-18 17:05:00,martes,18,
831804457,HERRERA,Extinguido,564,8,2026-03-11 21:25,2026-03-11 21:55,2026-03-11 23:25,2026-03-11 21:25,2026-03-11 21:25,2026-03-11 21:25,2026-03-11 21:25,2026-03-11 21:34,2026-03-11 21:37,"0,04",-37.47972106933594,-73.31861114501953,Empresa,,,Curanilahue,Arauco,Biobío,11,08 Biobío,2026-03-11 21:25:00,miércoles,22,
828644877,LOS ALAMOS Y SAN AMBROSIO,Extinguido,545,8,2026-03-06 00:30,2026-03-06 01:18,2026-03-06 01:35,2026-03-06 00:30,2026-03-06 00:30,2026-03-06 00:30,2026-03-06 00:30,2026-03-06 00:50,2026-03-06 00:55,"0,02",-37.628501892089844,-73.47608184814453,Empresa,,,Los Alamos,Arauco,Biobío,11,08 Biobío,2026-03-06 00:30:00,viernes,1,
824533272,RESERVA LOS RIOS,Extinguido,530,8,2026-02-26 00:37,2026-02-26 01:28,2026-02-26 02:37,2026-02-26 00:37,2026-02-26 00:37,2026-02-26 00:38,2026-02-26 00:39,2026-02-26 00:55,2026-02-26 01:00,"0,07",-37.493221282958984,-73.34996032714844,Empresa,,,Curanilahue,Arauco,Biobío,11,08 Biobío,2026-02-26 00:37:00,jueves,1,
824532672,RESERVA LOS RIOS,Extinguido,529,8,2026-02-26 03:01,2026-02-26 03:11,2026-02-26 03:30,2026-02-26 03:01,2026-02-26 03:01,2026-02-26 03:02,2026-02-26 03:02,2026-02-26 03:04,2026-02-26 03:05,"0,01",-37.49717712402344,-73.3482666015625,Empresa,,,Curanilahue,Arauco,Biobío,11,08 Biobío,2026-02-26 03:01:00,jueves,4,
824532363,YANE EFA,Extinguido,528,8,2026-02-25 14:43,2026-02-25 16:20,2026-02-25 18:45,2026-02-25 14:43,2026-02-25 14:43,2026-02-25 14:43,2026-02-25 14:44,2026-02-25 15:01,2026-02-25 15:01,"0,12",-37.35184097290039,-73.66407775878906,Empresa,,,Arauco,Arauco,Biobío,11,08 Biobío,2026-02-25 14:43:00,miércoles,15,
823208851,MANZANO MIRAMAR,Extinguido,526,8,2026-02-23 22:35,2026-02-24 01:03,2026-02-24 11:00,2026-02-23 22:35,2026-02-23 22:35,2026-02-23 22:35,2026-02-23 22:35,2026-02-23 23:11,2026-02-23 23:15,"0,41",-36.95916748046875,-73.04638671875,Empresa,,,Coronel,Concepción,Biobío,11,08 Biobío,2026-02-23 22:35:00,lunes,23,
828356404,CAMARICO,Extinguido,607,8,2026-03-05 16:50,2026-03-05 18:01,2026-03-05 19:19,2026-03-05 16:52,2026-03-05 16:53,2026-03-05 16:54,2026-03-05 16:55,2026-03-05 17:07,2026-03-05 17:18,"0,30",-36.77083206176758,-72.87249755859375,CONAF,Plantación eucaliptus,,Penco,Concepción,Biobío,11,08 Biobío,2026-03-05 16:50:00,jueves,17,
846590137,SARA DE LAS CRUCES LOTE A,Extinguido,597,8,2026-04-10 19:33,2026-04-10 21:15,2026-04-10 21:32,2026-04-10 19:33,2026-04-10 19:33,2026-04-10 19:33,2026-04-10 19:33,2026-04-10 20:16,2026-04-10 20:25,"0,38",-37.216827392578125,-73.19879150390625,Empresa,,,Arauco,Arauco,Biobío,11,08 Biobío,2026-04-10 19:33:00,viernes,20,
822935826,ARAUCANA TRES PINOS ARAU,Extinguido,513,8,2026-02-23 09:12,2026-02-23 09:48,2026-02-23 10:41,2026-02-23 09:12,2026-02-23 09:12,2026-02-23 09:13,2026-02-23 09:13,2026-02-23 09:16,2026-02-23 09:18,"0,10",-37.6341667175293,-73.40277862548828,Empresa,,,Los Alamos,Arauco,Biobío,11,08 Biobío,2026-02-23 09:12:00,lunes,10,
823027639,MANTOS GRANDES,Extinguido,520,8,2026-02-22 20:15,2026-02-22 22:26,2026-02-23 14:25,2026-02-22 20:15,2026-02-22 20:15,2026-02-22 20:15,2026-02-22 20:15,2026-02-22 20:40,2026-02-22 20:43,"0,30",-37.63194274902344,-73.39833068847656,Empresa,,,Los Alamos,Arauco,Biobío,11,08 Biobío,2026-02-22 20:15:00,domingo,21,
822958542,LA HIGUERA FBB,Extinguido,570,8,2026-02-23 13:22,2026-02-23 14:46,2026-02-24 22:15,2026-02-23 13:24,2026-02-23 13:25,2026-02-23 13:26,2026-02-23 13:26,2026-02-23 13:36,2026-02-23 13:40,"0,20",-37.05861282348633,-72.95471954345703,CONAF,Pastizal,,Hualqui,Concepción,Biobío,11,08 Biobío,2026-02-23 13:22:00,lunes,14,
804936975,MIRADOR LIRQUEN,Extinguido,385,8,2026-01-17 08:49,2026-01-17 11:16,2026-01-17 11:36,2026-01-17 08:51,2026-01-17 08:52,2026-01-17 08:53,2026-01-17 08:53,2026-01-17 08:57,2026-01-17 09:08,"0,01",-36.70980453491211,-72.97093200683594,CONAF,Matorral,,Penco,Concepción,Biobío,11,08 Biobío,2026-01-17 08:49:00,sábado,9,
822385059,COIHUECO,Extinguido,505,8,2026-02-15 18:04,2026-02-15 20:15,2026-02-15 21:20,2026-02-15 18:04,2026-02-15 18:04,2026-02-15 18:04,2026-02-15 18:09,2026-02-15 18:43,2026-02-15 18:44,"0,12",-37.469444274902344,-72.00499725341797,Empresa,,,Quilleco,Biobio,Biobío,11,08 Biobío,2026-02-15 18:04:00,domingo,19,
814748296,ARAUCANA TRES PINOS ARAU,Extinguido,474,8,2026-01-30 02:23,2026-01-30 03:27,2026-01-30 03:27,2026-01-30 02:23,2026-01-30 02:23,2026-01-30 02:23,2026-01-30 02:23,2026-01-30 03:04,2026-01-30 03:09,"0,00",-37.66166687011719,-73.3949966430664,Empresa,,,Los Alamos,Arauco,Biobío,11,08 Biobío,2026-01-30 02:23:00,viernes,3,
822388129,ARAUCANA TRES PINOS ARAU,Extinguido,507,8,2026-02-21 14:09,2026-02-21 14:15,2026-02-21 14:30,2026-02-21 14:09,2026-02-21 14:09,2026-02-21 14:09,2026-02-21 14:09,2026-02-21 14:09,2026-02-21 14:10,"0,00",-37.63333511352539,-73.4013900756836,Empresa,,,Los Alamos,Arauco,Biobío,11,08 Biobío,2026-02-21 14:09:00,sábado,15,
852875069,GRILLA 150 A,Extinguido,541,5,2026-04-24 12:40,2026-04-25 17:34,2026-04-26 15:46,2026-04-24 12:40,2026-04-24 12:40,2026-04-24 12:43,2026-04-24 12:50,2026-04-24 13:10,2026-04-24 13:24,"144,50",-27.092853546142578,-109.31590270996094,CONAF,Pastizal,Rapa Nui,Isla de Pascua,Isla de Pascua,Valparaíso Insular,6,05 Valparaíso Insular,2026-04-24 12:40:00,viernes,13,dce8af398b09fab9bb3beb4d16b926a19d81fcc9c0f5c790fcba7ac5ed6edb58
807385002,CONUCO,Extinguido,369,8,2026-01-17 21:57,2026-01-17 23:20,2026-02-08 13:50,2026-01-17 21:57,2026-01-17 21:57,2026-01-17 21:57,2026-01-17 21:57,2026-01-17 21:57,2026-01-17 22:08,"1,06",-36.63383483886719,-72.77930450439453,Empresa,,,Tomé,Concepción,Biobío,11,08 Biobío,2026-01-17 21:57:00,sábado,22,
809081854,PALIHUE,Extinguido,441,8,2026-01-25 01:36,2026-01-25 11:48,2026-01-26 12:43,2026-01-25 01:38,2026-01-25 01:39,2026-01-25 01:40,2026-01-25 01:41,2026-01-25 02:35,2026-01-25 03:05,"0,26",-37.31861114501953,-72.79277801513672,CONAF,Plantación pino,,Nacimiento,Biobio,Biobío,11,08 Biobío,2026-01-25 01:36:00,domingo,2,
809732146,LOS ALAMOS Y SAN AMBROSIO,Extinguido,386,8,2026-01-26 18:15,2026-01-26 18:52,2026-01-26 19:42,2026-01-26 18:15,2026-01-26 18:15,2026-01-26 18:15,2026-01-26 18:15,2026-01-26 18:25,2026-01-26 18:27,"0,08",-37.66666793823242,-73.51805877685547,Empresa,,,Los Alamos,Arauco,Biobío,11,08 Biobío,2026-01-26 18:15:00,lunes,19,
866713585,FINAL CALLE OHIGGINS 9,Extinguido,575,5,2026-05-26 10:26,2026-05-26 12:18,2026-05-26 13:34,2026-05-26 10:29,2026-05-26 10:30,2026-05-26 10:31,2026-05-26 10:32,2026-05-26 10:56,2026-05-26 10:57,"2,29",-32.789268493652344,-71.22845458984375,CONAF,Pastizal,,Calera,Quillota,Valparaíso,6,05 Valparaíso,2026-05-26 10:26:00,martes,11,
822658332,LOS ROBLES,Extinguido,549,7,2026-02-22 23:01,2026-02-23 01:06,2026-02-23 07:07,2026-02-22 23:02,2026-02-22 23:03,2026-02-22 23:03,2026-02-22 23:03,2026-02-22 23:31,2026-02-22 23:31,"0,50",-35.20722198486328,-71.35194396972656,CONAF,Matorral,,Río Claro,Talca,Maule,9,07 Maule,2026-02-22 23:01:00,domingo,0,
822469915,NILPE 5,Extinguido,704,9,2026-02-22 15:47,2026-02-23 21:37,2026-02-23 21:37,2026-02-22 15:48,2026-02-22 15:49,2026-02-22 15:49,2026-02-22 15:50,2026-02-22 16:18,2026-02-22 16:18,"2,50",-38.45833206176758,-72.8116683959961,CONAF,Plantación pino,,Galvarino,Cautín,La Araucanía,12,09 La Araucanía,2026-02-22 15:47:00,domingo,16,
792171813,CENTINELA,Extinguido,194,7,2025-12-09 17:51,2025-12-09 19:22,2025-12-09 20:38,2025-12-09 17:52,2025-12-09 17:53,2025-12-09 17:54,2025-12-09 17:54,2025-12-09 18:17,2025-12-09 18:22,"1,00",-35.364723205566406,-71.55999755859375,CONAF,Pastizal,,Talca,Talca,Maule,9,07 Maule,2025-12-09 17:51:00,martes,18,
791659846,LOS CRISTALES,Extinguido,155,8,2025-12-07 17:46,2025-12-07 18:58,2025-12-07 20:57,2025-12-07 17:48,2025-12-07 17:49,2025-12-07 17:50,2025-12-07 17:50,2025-12-07 17:58,2025-12-07 18:15,"1,01",-37.55888748168945,-72.27083587646484,CONAF,Pastizal,,Los Angeles,Biobio,Biobío,11,08 Biobío,2025-12-07 17:46:00,domingo,18,
782482101,LO PINTO,Extinguido,35,13,2025-10-26 15:50,2025-10-26 16:58,2025-10-26 17:01,2025-10-26 15:53,2025-10-26 15:56,2025-10-26 15:56,2025-10-26 15:58,2025-10-26 15:59,2025-10-26 15:59,"0,04",-33.27506637573242,-70.74791717529297,CONAF,Pastizal,,Lampa,Chacabuco,Metropolitana,7,13 Metropolitana,2025-10-26 15:50:00,domingo,16,
782623965,CRUCE EL MARCO,Extinguido,37,13,2025-10-27 14:24,2025-10-27 15:43,2025-10-27 16:48,2025-10-27 14:27,2025-10-27 14:30,2025-10-27 14:31,2025-10-27 14:31,2025-10-27 14:42,2025-10-27 14:42,"0,20",-33.6740837097168,-71.16039276123047,CONAF,Pastizal,,Melipilla,Melipilla,Metropolitana,7,13 Metropolitana,2025-10-27 14:24:00,lunes,15,
823436348,EL CASTILLO,Extinguido,575,8,2026-02-24 10:34,2026-02-24 12:39,2026-02-24 15:10,2026-02-24 10:36,2026-02-24 10:37,2026-02-24 10:38,2026-02-24 10:41,2026-02-24 11:23,2026-02-24 11:32,"0,50",-37.41638946533203,-72.34610748291016,CONAF,Pastizal,,Los Angeles,Biobio,Biobío,11,08 Biobío,2026-02-24 10:34:00,martes,11,
784228550,LO ECHEVERS 2,Extinguido,55,13,2025-11-05 15:21,2025-11-05 17:13,2025-11-05 17:28,2025-11-05 15:24,2025-11-05 15:27,2025-11-05 15:38,2025-11-05 15:38,2025-11-05 15:50,2025-11-05 15:51,"0,08",-33.29888916015625,-70.82833099365234,CONAF,Pastizal,,Lampa,Chacabuco,Metropolitana,7,13 Metropolitana,2025-11-05 15:21:00,miércoles,16,
791633842,SAN FABIAN,Extinguido,108,16,2025-12-07 15:40,2025-12-07 17:39,2025-12-07 17:40,2025-12-07 15:42,2025-12-07 15:43,2025-12-07 15:44,2025-12-07 15:47,2025-12-07 15:59,2025-12-07 16:00,"0,24",-36.572776794433594,-71.55332946777344,CONAF,Pastizal,,San Fabián,Punilla,Ñuble,10,16 Ñuble,2025-12-07 15:40:00,domingo,16,
784820590,NOVICIADO,Extinguido,63,13,2025-11-08 14:14,2025-11-08 15:56,2025-11-08 16:44,2025-11-08 14:16,2025-11-08 14:17,2025-11-08 14:22,2025-11-08 14:22,2025-11-08 14:50,2025-11-08 14:50,"0,30",-33.401222229003906,-70.8625259399414,CONAF,Pastizal,,Pudahuel,Santiago,Metropolitana,7,13 Metropolitana,2025-11-08 14:14:00,sábado,15,
785019807,MALLINCO,Extinguido,67,13,2025-11-09 16:58,2025-11-09 18:17,2025-11-09 18:32,2025-11-09 17:01,2025-11-09 17:04,2025-11-09 17:04,2025-11-09 17:06,2025-11-09 17:30,2025-11-09 17:30,"0,10",-33.58952713012695,-70.8824462890625,CONAF,Pastizal,,Peñaflor,Talagante,Metropolitana,7,13 Metropolitana,2025-11-09 16:58:00,domingo,17,
785543899,SAN PABLO 2,Extinguido,78,13,2025-11-12 12:50,2025-11-12 13:56,2025-11-12 16:22,2025-11-12 12:51,2025-11-12 12:52,2025-11-12 12:55,2025-11-12 13:00,2025-11-12 13:20,2025-11-12 13:20,"1,50",-33.440887451171875,-70.81019592285156,CONAF,Pastizal,,Pudahuel,Santiago,Metropolitana,7,13 Metropolitana,2025-11-12 12:50:00,miércoles,13,
785627947,EL MANZANITO,Extinguido,81,13,2025-11-12 18:48,2025-11-12 19:59,2025-11-12 20:32,2025-11-12 18:50,2025-11-12 18:53,2025-11-12 18:55,2025-11-12 18:56,2025-11-12 18:58,2025-11-12 19:01,"0,30",-33.94449996948242,-71.51841735839844,CONAF,Pastizal,,San Pedro,Melipilla,Metropolitana,7,13 Metropolitana,2025-11-12 18:48:00,miércoles,19,
791672193,LA MEDIA LUNA,Extinguido,59,10,2025-12-07 18:00,2025-12-07 19:03,2025-12-07 19:11,2025-12-07 18:07,2025-12-07 18:08,2025-12-07 18:10,2025-12-07 18:10,2025-12-07 18:15,2025-12-07 18:20,"0,02",-42.36750030517578,-73.65028381347656,CONAF,Matorral,,Dalcahue,Chiloé,Los Lagos,14,10 Los Lagos,2025-12-07 18:00:00,domingo,19,
785782443,LO PINTO,Extinguido,83,13,2025-11-13 15:13,2025-11-13 17:18,2025-11-13 18:16,2025-11-13 15:15,2025-11-13 15:18,2025-11-13 15:19,2025-11-13 15:20,2025-11-13 15:35,2025-11-13 15:36,"0,30",-33.27838897705078,-70.72663879394531,CONAF,Pastizal,,Colina,Chacabuco,Metropolitana,7,13 Metropolitana,2025-11-13 15:13:00,jueves,16,
786230954,EL ALMENDRO ORIENTE,Extinguido,96,13,2025-11-15 19:24,2025-11-15 20:44,2025-11-15 21:02,2025-11-15 19:27,2025-11-15 19:31,2025-11-15 19:32,2025-11-15 19:35,2025-11-15 19:55,2025-11-15 19:56,"0,10",-33.38155746459961,-70.61135864257812,CONAF,Pastizal,,Huechuraba,Santiago,Metropolitana,7,13 Metropolitana,2025-11-15 19:24:00,sábado,20,
786251130,LA CANTERA,Extinguido,98,13,2025-11-15 22:14,2025-11-16 00:21,2025-11-16 01:19,2025-11-15 22:17,2025-11-15 22:20,2025-11-15 22:20,2025-11-15 22:21,2025-11-15 22:21,2025-11-15 22:25,"0,71",-33.662498474121094,-70.94999694824219,CONAF,Pastizal,,El Monte,Talagante,Metropolitana,7,13 Metropolitana,2025-11-15 22:14:00,sábado,23,
788372698,CAMPO LINDO,Extinguido,114,8,2025-11-24 16:46,2025-11-24 19:26,2025-11-25 21:27,2025-11-24 16:48,2025-11-24 16:49,2025-11-24 16:50,2025-11-24 16:51,2025-11-24 17:00,2025-11-24 17:02,"0,12",-36.81888961791992,-72.79000091552734,CONAF,Matorral,,Florida,Concepción,Biobío,11,08 Biobío,2025-11-24 16:46:00,lunes,17,
789034517,SN ONOFRE,Extinguido,162,8,2025-11-26 15:50,2025-11-26 16:18,2025-11-26 17:25,2025-11-26 15:50,2025-11-26 15:50,2025-11-26 15:50,2025-11-26 15:50,2025-11-26 16:00,2025-11-26 16:06,"0,04",-37.00880432128906,-72.9112777709961,Empresa,,,Hualqui,Concepción,Biobío,11,08 Biobío,2025-11-26 15:50:00,miércoles,16,
788040534,MILLONGUE,Extinguido,77,8,2025-11-22 14:26,2025-11-22 15:15,2025-11-22 23:44,2025-11-22 14:26,2025-11-22 14:26,2025-11-22 14:27,2025-11-22 14:27,2025-11-22 14:41,2025-11-22 14:45,"0,36",-37.54722213745117,-73.62444305419922,Empresa,,,Lebu,Arauco,Biobío,11,08 Biobío,2025-11-22 14:26:00,sábado,15,
787130063,PINARES DE HOMERHUET,Extinguido,71,8,2025-11-18 23:08,2025-11-19 01:30,2025-11-19 15:37,2025-11-18 23:08,2025-11-18 23:08,2025-11-18 23:09,2025-11-18 23:16,2025-11-19 00:05,2025-11-19 01:13,"0,03",-36.96888732910156,-72.9830551147461,Empresa,,,Hualqui,Concepción,Biobío,11,08 Biobío,2025-11-18 23:08:00,martes,0,
788549272,PATAGUAL,Extinguido,150,8,2025-11-24 23:48,2025-11-25 00:50,2025-11-25 02:55,2025-11-24 23:48,2025-11-24 23:48,2025-11-24 23:49,2025-11-24 23:56,2025-11-25 00:15,2025-11-25 00:20,"0,10",-37.03499984741211,-72.98139190673828,Empresa,,,Coronel,Concepción,Biobío,11,08 Biobío,2025-11-24 23:48:00,lunes,0,
788549585,"QUILLAY, EL",Extinguido,151,8,2025-11-25 00:35,2025-11-25 02:40,2025-11-25 05:15,2025-11-25 00:35,2025-11-25 00:35,2025-11-25 00:36,2025-11-25 00:50,2025-11-25 01:36,2025-11-25 02:10,"0,20",-37.39444351196289,-73.02555847167969,Empresa,,,Santa Juana,Concepción,Biobío,11,08 Biobío,2025-11-25 00:35:00,martes,1,
793176511,DICHOCO,Extinguido,175,8,2025-12-13 13:21,2025-12-13 14:35,2025-12-13 15:04,2025-12-13 13:23,2025-12-13 13:24,2025-12-13 13:25,2025-12-13 13:30,2025-12-13 13:34,2025-12-13 13:37,"0,15",-36.70777893066406,-72.97305297851562,CONAF,Matorral,,Penco,Concepción,Biobío,11,08 Biobío,2025-12-13 13:21:00,sábado,14,
793657316,OL-COIHUECO Y OTROS BIOBIO,Extinguido,214,8,2025-12-15 13:08,2025-12-15 13:55,2025-12-15 16:55,2025-12-15 13:08,2025-12-15 13:08,2025-12-15 13:08,2025-12-15 13:09,2025-12-15 13:22,2025-12-15 13:26,"0,12",-36.747501373291016,-72.98444366455078,Empresa,,,Penco,Concepción,Biobío,11,08 Biobío,2025-12-15 13:08:00,lunes,14,
791652442,POCOCHAY - EL NARANJAL,Extinguido,154,5,2025-12-07 17:03,2025-12-07 19:29,2025-12-07 20:48,2025-12-07 17:07,2025-12-07 17:08,2025-12-07 17:09,2025-12-07 17:09,2025-12-07 17:25,2025-12-07 17:28,"0,52",-32.83247375488281,-71.20494079589844,CONAF,Pastizal,,La Cruz,Quillota,Valparaíso,6,05 Valparaíso,2025-12-07 17:03:00,domingo,18,
816700715,LA PAZ,Extinguido,519,8,2026-02-11 16:11,2026-02-11 17:30,2026-02-11 17:50,2026-02-11 16:13,2026-02-11 16:14,2026-02-11 16:15,2026-02-11 16:17,2026-02-11 16:26,2026-02-11 16:31,"0,02",-36.91694259643555,-72.75055694580078,CONAF,Pastizal,,Florida,Concepción,Biobío,11,08 Biobío,2026-02-11 16:11:00,miércoles,17,
794842017,CANTERAS FORESTAL-EL DURAZNO,Extinguido,225,8,2025-12-16 21:28,2025-12-16 23:27,2025-12-17 00:35,2025-12-16 21:28,2025-12-16 21:28,2025-12-16 21:28,2025-12-16 21:29,2025-12-16 22:15,2025-12-16 22:29,"0,13",-37.42194366455078,-71.9638900756836,Empresa,,,Quilleco,Biobio,Biobío,11,08 Biobío,2025-12-16 21:28:00,martes,22,
794844687,LOS ALAMOS Y SAN AMBROSIO,Extinguido,226,8,2025-12-17 20:27,2025-12-17 20:55,2025-12-17 21:15,2025-12-17 20:27,2025-12-17 20:27,2025-12-17 20:27,2025-12-17 20:27,2025-12-17 20:35,2025-12-17 20:37,"0,07",-37.62305450439453,-73.4808349609375,Empresa,,,Los Alamos,Arauco,Biobío,11,08 Biobío,2025-12-17 20:27:00,miércoles,21,
795424271,BURCA,Extinguido,230,8,2025-12-18 05:14,2025-12-18 08:40,2025-12-19 02:52,2025-12-18 05:14,2025-12-18 05:14,2025-12-18 05:15,2025-12-18 05:15,2025-12-18 06:26,2025-12-18 06:31,"0,30",-36.48472213745117,-72.85944366455078,Empresa,,,Tomé,Concepción,Biobío,11,08 Biobío,2025-12-18 05:14:00,jueves,6,
795492264,LA CAPILLA (PARTICULAR),Extinguido,223,8,2025-12-19 14:04,2025-12-19 14:43,2025-12-19 14:44,2025-12-19 14:06,2025-12-19 14:07,2025-12-19 14:08,2025-12-19 14:08,2025-12-19 14:31,2025-12-19 14:36,"0,01",-37.66722106933594,-73.53388977050781,CONAF,Pastizal,,Lebu,Arauco,Biobío,11,08 Biobío,2025-12-19 14:04:00,viernes,15,
786862176,ISLA SANTA MARIA II,Extinguido,88,8,2025-11-18 16:44,2025-11-18 18:28,2025-11-20 11:47,2025-11-18 16:46,2025-11-18 16:47,2025-11-18 16:48,2025-11-18 16:56,2025-11-18 17:05,2025-11-18 17:07,"5,00",-37.00138854980469,-73.53221893310547,CONAF,Matorral,,Coronel,Concepción,Biobío,11,08 Biobío,2025-11-18 16:44:00,martes,17,
811727894,SAN NICOLAS-CBB,Extinguido,425,8,2026-01-30 20:47,2026-01-30 22:50,2026-01-31 00:28,2026-01-30 20:47,2026-01-30 20:47,2026-01-30 20:47,2026-01-30 20:48,2026-01-30 21:35,2026-01-30 21:38,"0,20",-37.04944610595703,-72.945556640625,Empresa,,,Hualqui,Concepción,Biobío,11,08 Biobío,2026-01-30 20:47:00,viernes,21,
811724217,PALOS QUEMADOS L.1,Extinguido,422,8,2026-01-30 14:49,2026-01-30 15:53,2026-01-30 16:35,2026-01-30 14:49,2026-01-30 14:49,2026-01-30 14:49,2026-01-30 14:58,2026-01-30 15:10,2026-01-30 15:47,"0,00",-37.60194396972656,-73.03639221191406,Empresa,,,Nacimiento,Biobio,Biobío,11,08 Biobío,2026-01-30 14:49:00,viernes,15,
824535682,ANIMAS DEL PILLO,Extinguido,531,8,2026-01-30 10:04,2026-01-30 10:46,2026-01-30 12:35,2026-01-30 10:04,2026-01-30 10:04,2026-01-30 10:04,2026-01-30 10:09,2026-01-30 10:22,2026-01-30 10:25,"0,01",-37.60749816894531,-73.4205551147461,Empresa,,,Los Alamos,Arauco,Biobío,11,08 Biobío,2026-01-30 10:04:00,viernes,11,
798042980,LOS COPIHUES BIOBIO,Extinguido,252,8,2025-12-27 17:36,2025-12-27 18:13,2025-12-27 19:25,2025-12-27 17:36,2025-12-27 17:36,2025-12-27 17:37,2025-12-27 17:37,2025-12-27 17:49,2025-12-27 17:50,"0,01",-36.72472381591797,-72.91764068603516,Empresa,,,Penco,Concepción,Biobío,11,08 Biobío,2025-12-27 17:36:00,sábado,18,
811715968,"CORRIENTES N2, LAS",Extinguido,416,8,2026-01-30 09:32,2026-01-30 12:40,2026-01-30 18:12,2026-01-30 09:32,2026-01-30 09:32,2026-01-30 09:33,2026-01-30 09:33,2026-01-30 10:41,2026-01-30 10:49,"0,30",-37.299720764160156,-73.09889221191406,Empresa,,,Arauco,Arauco,Biobío,11,08 Biobío,2026-01-30 09:32:00,viernes,10,
802032619,LOS ALAMOS Y SAN AMBROSIO,Extinguido,330,8,2026-01-09 20:38,2026-01-09 21:04,2026-01-09 21:29,2026-01-09 20:38,2026-01-09 20:38,2026-01-09 20:38,2026-01-09 20:38,2026-01-09 20:42,2026-01-09 20:44,"0,01",-37.67527770996094,-73.52972412109375,Empresa,,,Los Alamos,Arauco,Biobío,11,08 Biobío,2026-01-09 20:38:00,viernes,21,
801373494,ARAUCANA TRES PINOS ARAU,Extinguido,324,8,2026-01-08 09:53,2026-01-08 10:48,2026-01-08 10:50,2026-01-08 09:53,2026-01-08 09:53,2026-01-08 09:53,2026-01-08 09:53,2026-01-08 10:04,2026-01-08 10:07,"0,03",-37.63694381713867,-73.39360809326172,Empresa,,,Los Alamos,Arauco,Biobío,11,08 Biobío,2026-01-08 09:53:00,jueves,10,
797556903,LOS ROBLES,Extinguido,246,8,2025-12-27 17:40,2025-12-27 19:12,2025-12-27 19:36,2025-12-27 17:42,2025-12-27 17:43,2025-12-27 17:44,2025-12-27 17:45,2025-12-27 18:03,2025-12-27 18:08,"1,24",-37.07027816772461,-72.60055541992188,CONAF,Pastizal,,Yumbel,Biobio,Biobío,11,08 Biobío,2025-12-27 17:40:00,sábado,18,
800506477,FUNDO PLEGARIAS,Extinguido,316,8,2026-01-05 13:48,2026-01-05 14:18,2026-01-05 14:45,2026-01-05 13:48,2026-01-05 13:48,2026-01-05 13:49,2026-01-05 13:49,2026-01-05 13:59,2026-01-05 14:09,"0,02",-37.51972198486328,-73.34333038330078,Empresa,,,Curanilahue,Arauco,Biobío,11,08 Biobío,2026-01-05 13:48:00,lunes,14,
799025357,LA CRUZ Y LO PINOS FBB,Extinguido,291,8,2025-12-31 20:57,2025-12-31 22:18,2025-12-31 22:35,2025-12-31 20:57,2025-12-31 20:57,2025-12-31 20:58,2025-12-31 20:58,2025-12-31 21:40,2025-12-31 21:45,"0,09",-36.81666564941406,-72.85305786132812,Empresa,,,Concepción,Concepción,Biobío,11,08 Biobío,2025-12-31 20:57:00,miércoles,21,
799757854,OL-COIHUECO Y OTROS BIOBIO,Extinguido,301,8,2026-01-02 00:08,2026-01-02 02:40,2026-01-02 19:02,2026-01-02 00:08,2026-01-02 00:08,2026-01-02 00:08,2026-01-02 00:08,2026-01-02 00:20,2026-01-02 00:22,"0,93",-36.75194549560547,-72.98139190673828,Empresa,,,Penco,Concepción,Biobío,11,08 Biobío,2026-01-02 00:08:00,viernes,1,
794467429,236 - PURGATORIO H-3,Extinguido,568,8,2025-12-17 17:50,2025-12-17 19:10,2025-12-17 21:28,2025-12-17 17:50,2025-12-17 17:50,2025-12-17 17:50,2025-12-17 17:50,2025-12-17 18:12,2025-12-17 18:35,"0,16",-37.34319305419922,-73.01841735839844,Empresa,,,Santa Juana,Concepción,Biobío,11,08 Biobío,2025-12-17 17:50:00,miércoles,18,
786888885,"ZANJA, LA",Extinguido,69,8,2025-11-18 17:51,2025-11-18 18:50,2025-11-18 20:29,2025-11-18 17:51,2025-11-18 17:51,2025-11-18 17:51,2025-11-18 17:53,2025-11-18 17:54,2025-11-18 18:26,"0,03",-37.66972351074219,-73.52527618408203,Empresa,,,Lebu,Arauco,Biobío,11,08 Biobío,2025-11-18 17:51:00,martes,18,
792684450,LAS TURBINAS,Extinguido,112,16,2025-12-11 15:28,2025-12-11 18:20,2025-12-12 18:45,2025-12-11 15:30,2025-12-11 15:31,2025-12-11 15:32,2025-12-11 15:33,2025-12-11 15:48,2025-12-11 15:49,"0,01",-36.870277404785156,-71.65750122070312,CONAF,Arbolado natural,,Pinto,Diguillín,Ñuble,10,16 Ñuble,2025-12-11 15:28:00,jueves,16,
791647288,COIPUE,Extinguido,180,7,2025-12-07 16:35,2025-12-07 18:50,2025-12-07 21:19,2025-12-07 16:36,2025-12-07 16:37,2025-12-07 16:38,2025-12-07 16:39,2025-12-07 16:53,2025-12-07 17:00,"2,30",-35.23414611816406,-72.12435913085938,CONAF,Pastizal,,Curepto,Talca,Maule,9,07 Maule,2025-12-07 16:35:00,domingo,17,
862809822,CRUCE LAS VIÑAS,Extinguido,569,5,2026-05-17 14:44,2026-05-17 15:26,2026-05-17 15:37,2026-05-17 14:45,2026-05-17 14:46,2026-05-17 14:47,2026-05-17 14:49,2026-05-17 15:05,2026-05-17 15:05,"0,03",-33.77547073364258,-71.62297058105469,CONAF,Pastizal,,Santo Domingo,San Antonio,Valparaíso,6,05 Valparaíso,2026-05-17 14:44:00,domingo,15,
862818550,POBLACION NUEVA ESPERANZA,Extinguido,568,5,2026-05-17 14:39,2026-05-17 15:27,2026-05-17 15:37,2026-05-17 14:40,2026-05-17 14:41,2026-05-17 14:42,2026-05-17 14:47,2026-05-17 15:08,2026-05-17 15:10,"0,02",-32.420310974121094,-71.05380249023438,CONAF,Pastizal,,Cabildo,Petorca,Valparaíso,6,05 Valparaíso,2026-05-17 14:39:00,domingo,15,
821978191,CHACAY,Extinguido,511,8,2026-02-21 17:27,2026-02-21 19:45,2026-02-22 16:35,2026-02-21 17:27,2026-02-21 17:27,2026-02-21 17:28,2026-02-21 17:28,2026-02-21 17:51,2026-02-21 17:51,"0,40",-37.81444549560547,-73.14971923828125,Empresa,,,Cañete,Arauco,Biobío,11,08 Biobío,2026-02-21 17:27:00,sábado,18,
792189416,EL DURAZNO,Extinguido,196,7,2025-12-09 18:53,2025-12-10 15:14,2025-12-11 14:12,2025-12-09 18:54,2025-12-09 18:55,2025-12-09 18:55,2025-12-09 18:55,2025-12-09 19:12,2025-12-09 19:13,"11,20",-35.17766571044922,-71.62017059326172,CONAF,Desechos,,Sagrada Familia,Curicó,Maule,9,07 Maule,2025-12-09 18:53:00,martes,19,
786165769,LOMA ALTA,Extinguido,62,8,2025-11-15 10:07,2025-11-15 11:15,2025-11-15 13:26,2025-11-15 10:07,2025-11-15 10:07,2025-11-15 10:08,2025-11-15 10:10,2025-11-15 10:33,2025-11-15 10:40,"0,18",-36.63694381713867,-72.90528106689453,Empresa,,,Tomé,Concepción,Biobío,11,08 Biobío,2025-11-15 10:07:00,sábado,11,
791601805,TUCAPEL,Extinguido,152,8,2025-12-07 12:57,2025-12-07 15:49,2025-12-08 10:08,2025-12-07 12:59,2025-12-07 13:00,2025-12-07 13:01,2025-12-07 13:03,2025-12-07 13:23,2025-12-07 13:27,"0,68",-37.76222229003906,-73.39583587646484,CONAF,Pastizal,,Cañete,Arauco,Biobío,11,08 Biobío,2025-12-07 12:57:00,domingo,13,
803634970,SANTA CAROLINA,Extinguido,228,16,2026-01-14 06:39,2026-01-14 08:50,2026-01-14 11:00,2026-01-14 06:39,2026-01-14 06:40,2026-01-14 06:40,2026-01-14 06:43,2026-01-14 07:05,2026-01-14 07:06,"0,01",-36.560001373291016,-72.695556640625,CONAF,Matorral,,Coelemu,Itata,Ñuble,10,16 Ñuble,2026-01-14 06:39:00,miércoles,7,
864958417,ESCUADRON,Extinguido,615,8,2026-05-22 11:46,2026-05-22 14:08,2026-05-27 11:55,2026-05-22 11:47,2026-05-22 11:48,2026-05-22 11:48,2026-05-22 11:48,2026-05-22 12:00,2026-05-22 12:10,"0,04",-36.91722106933594,-73.1308364868164,Empresa,,,Coronel,Concepción,Biobío,11,08 Biobío,2026-05-22 11:46:00,viernes,12,
859466896,NIHUE 3,Extinguido,612,13,2026-05-09 15:08,2026-05-09 16:26,2026-05-09 16:38,2026-05-09 15:12,2026-05-09 15:15,2026-05-09 15:16,2026-05-09 15:18,2026-05-09 16:09,2026-05-09 16:12,"0,01",-33.94347381591797,-71.54289245605469,CONAF,Pastizal,,San Pedro,Melipilla,Metropolitana,7,13 Metropolitana,2026-05-09 15:08:00,sábado,16,
791651797,RUTA 68 - KM 61,Extinguido,153,5,2025-12-07 17:01,2025-12-07 17:50,2025-12-07 18:08,2025-12-07 17:05,2025-12-07 17:06,2025-12-07 17:08,2025-12-07 17:09,2025-12-07 17:25,2025-12-07 17:28,"0,08",-33.361331939697266,-71.32050323486328,CONAF,Pastizal,,Casablanca,Valparaíso,Valparaíso,6,05 Valparaíso,2025-12-07 17:01:00,domingo,18,
859899987,LAS VERTIENTES,Extinguido,614,13,2026-05-10 15:04,2026-05-10 16:48,2026-05-10 16:59,2026-05-10 15:06,2026-05-10 15:07,2026-05-10 15:07,2026-05-10 15:08,2026-05-10 15:35,2026-05-10 15:35,"0,10",-33.823638916015625,-70.82122039794922,CONAF,Pastizal,,Buin,Maipo,Metropolitana,7,13 Metropolitana,2026-05-10 15:04:00,domingo,16,
