id,nombre,estado,num_reg,reg_id,f_inicio,f_control,f_extincion,sup_total,lat,lon,ambito,comb_inicial,snaspe,comuna,provincia,region,reg_order,nom_order,fmt_inicio,dia_nom,rango_hora
791600311,CERRO HUEIHUEN LA ANTENA,Extinguido,57,10,2025-12-07 12:20,2025-12-07 14:58,2025-12-07 14:58,"0,01",-41.865570068359375,-73.80723571777344,CONAF,Matorral,,Ancud,Chiloé,Los Lagos,14,10 Los Lagos,2025-12-07 12:20:00,domingo,13
791831373,SANTA REBECA,Extinguido,184,7,2025-12-08 13:20,2025-12-08 14:58,2025-12-08 16:57,"0,60",-35.09694290161133,-71.23583221435547,CONAF,Pastizal,,Molina,Curicó,Maule,9,07 Maule,2025-12-08 13:20:00,lunes,14
786576133,COIHUECO,Extinguido,72,8,2025-11-17 15:32,2025-11-17 17:33,2025-11-29 20:11,"5,74",-37.47111129760742,-72.02777862548828,Empresa,,,Quilleco,Biobio,Biobío,11,08 Biobío,2025-11-17 15:32:00,lunes,16
786873172,TIUQUILEMU,Extinguido,66,16,2025-11-18 17:18,2025-11-18 18:45,2025-11-18 19:07,"0,15",-36.39500045776367,-71.83694458007812,CONAF,Matorral,,Ñiquén,Punilla,Ñuble,10,16 Ñuble,2025-11-18 17:18:00,martes,18
789612595,CAMINO COHEN,Extinguido,53,10,2025-11-29 22:27,2025-11-30 14:11,2025-11-30 14:11,"0,20",-42.552223205566406,-73.42972564697266,CONAF,Matorral,,Quinchao,Chiloé,Los Lagos,14,10 Los Lagos,2025-11-29 22:27:00,sábado,23
789754059,VALDIVIA DE PAINE,Extinguido,168,13,2025-11-30 15:28,2025-11-30 17:43,2025-11-30 17:43,"2,00",-33.795249938964844,-70.83919525146484,CONAF,Pastizal,,Buin,Maipo,Metropolitana,7,13 Metropolitana,2025-11-30 15:28:00,domingo,16
791880534,PAREDONES DE AUQUINCO,Extinguido,112,6,2025-12-08 16:30,2025-12-08 19:52,2025-12-09 12:44,"1,04",-34.77275848388672,-71.15506744384766,CONAF,Matorral,,Chépica,Colchagua,O'Higgins,8,06 O'Higgins,2025-12-08 16:30:00,lunes,17
791790363,COLLIGUAY II,Extinguido,109,16,2025-12-08 10:22,2025-12-08 11:26,2025-12-08 12:05,"0,17",-36.654720306396484,-72.3597183227539,CONAF,Pastizal,,Chillán Viejo,Diguillín,Ñuble,10,16 Ñuble,2025-12-08 10:22:00,lunes,11
791881992,PASAJE TORTEL,Extinguido,61,10,2025-12-08 16:29,2025-12-08 18:25,2025-12-08 18:39,"0,05",-41.464168548583984,-72.90583038330078,CONAF,Matorral,,Puerto Montt,Llanquihue,Los Lagos,14,10 Los Lagos,2025-12-08 16:29:00,lunes,17
791880987,LAS JUNTAS 1,Extinguido,111,6,2025-12-08 16:30,2025-12-08 17:56,2025-12-08 18:37,"0,01",-34.27694320678711,-71.39116668701172,CONAF,Pastizal,,Pichidegua,Cachapoal,O'Higgins,8,06 O'Higgins,2025-12-08 16:30:00,lunes,17
789530512,SANTA MARIA,Extinguido,178,9,2025-11-29 15:19,2025-11-29 16:56,2025-11-29 17:18,"0,20",-38.377498626708984,-72.34638977050781,CONAF,Plantación eucaliptus,,Victoria,Malleco,La Araucanía,12,09 La Araucanía,2025-11-29 15:19:00,sábado,16
791912276,PUENTE PEUMO,Extinguido,113,6,2025-12-08 18:32,2025-12-08 19:35,2025-12-08 21:42,"0,50",-34.41130447387695,-71.13153076171875,CONAF,Basural,,San Vicente,Cachapoal,O'Higgins,8,06 O'Higgins,2025-12-08 18:32:00,lunes,19
791875219,PANELES SOLARES - SANTA LUISA SOLAR II,Extinguido,110,16,2025-12-08 16:09,2025-12-08 17:06,2025-12-08 17:22,"0,26",-36.455833435058594,-71.96722412109375,CONAF,Pastizal,,San Carlos,Punilla,Ñuble,10,16 Ñuble,2025-12-08 16:09:00,lunes,17
782172451,SANTA LAURA,Extinguido,30,9,2025-10-23 20:33,2025-10-24 08:30,2025-10-27 11:35,"0,12",-38.5724983215332,-72.79722595214844,Empresa,,,Cholchol,Cautín,La Araucanía,12,09 La Araucanía,2025-10-23 20:33:00,jueves,21
793027449,VILLA GENESIS IV,Extinguido,174,8,2025-12-12 20:05,2025-12-12 20:58,2025-12-12 21:10,"0,01",-37.48055648803711,-72.39861297607422,CONAF,Pastizal,,Los Angeles,Biobio,Biobío,11,08 Biobío,2025-12-12 20:05:00,viernes,21
792666041,LA JUNTA,Extinguido,4,3,2025-12-11 12:00,2025-12-11 13:50,2025-12-11 14:03,"0,03",-28.753108978271484,-70.48526763916016,CONAF,Arbolado natural,,Alto del Carmen,Huasco,Atacama,4,03 Atacama,2025-12-11 12:00:00,jueves,13
788653605,EL CERRO DE PELLOMENCO Y,Extinguido,155,9,2025-11-23 10:30,2025-11-23 14:40,2025-11-28 19:55,"1,47",-37.758056640625,-72.74722290039062,Empresa,,,Angol,Malleco,La Araucanía,12,09 La Araucanía,2025-11-23 10:30:00,domingo,11
792057158,ALPEHUE,Extinguido,213,9,2025-12-09 10:46,2025-12-09 19:33,2025-12-10 23:04,"0,01",-38.91114044189453,-71.63999938964844,CONAF,Arbolado natural,,Melipeuco,Cautín,La Araucanía,12,09 La Araucanía,2025-12-09 10:46:00,martes,11
791390589,SAN HILARIO,Extinguido,174,7,2025-12-06 14:45,2025-12-06 16:41,2025-12-06 17:34,"2,00",-35.11035919189453,-71.30738830566406,CONAF,Pastizal,,Molina,Curicó,Maule,9,07 Maule,2025-12-06 14:45:00,sábado,15
791171899,LOS ARANDANOS DE VALLE VOLCANES,Extinguido,55,10,2025-12-05 17:25,2025-12-05 18:09,2025-12-05 19:21,"0,06",-41.46452331542969,-72.9082260131836,CONAF,Matorral,,Puerto Montt,Llanquihue,Los Lagos,14,10 Los Lagos,2025-12-05 17:25:00,viernes,18
787603874,CHINCOLCO,Extinguido,97,5,2025-11-21 13:08,2025-11-21 14:44,2025-11-21 14:48,"0,13",-32.21694564819336,-70.8183364868164,CONAF,Pastizal,,Petorca,Petorca,Valparaíso,6,05 Valparaíso,2025-11-21 13:08:00,viernes,14
792388634,QUILLOTA,Extinguido,222,9,2025-12-10 14:07,2025-12-10 15:44,2025-12-10 23:12,"0,02",-37.75055694580078,-72.68499755859375,CONAF,Plantación eucaliptus,,Angol,Malleco,La Araucanía,12,09 La Araucanía,2025-12-10 14:07:00,miércoles,15
792236003,EL MAITEN,Extinguido,192,9,2025-12-08 15:37,2025-12-08 17:30,2025-12-11 12:36,"1,00",-38.237220764160156,-72.91860961914062,Empresa,,,Lumaco,Malleco,La Araucanía,12,09 La Araucanía,2025-12-08 15:37:00,lunes,16
791895824,LA FARFANA,Extinguido,211,13,2025-12-08 17:05,2025-12-09 11:19,2025-12-09 15:35,"6,00",-33.46305465698242,-70.77555847167969,CONAF,Pastizal,,Maipú,Santiago,Metropolitana,7,13 Metropolitana,2025-12-08 17:05:00,lunes,18
792984310,SANTA AGUEDA,Extinguido,203,7,2025-12-12 17:00,2025-12-12 19:21,2025-12-12 21:35,"3,20",-35.239444732666016,-71.35250091552734,CONAF,Pastizal,,Río Claro,Talca,Maule,9,07 Maule,2025-12-12 17:00:00,viernes,18
782655463,EL SEMINARIO  LLALLAUQUEN,Extinguido,26,6,2025-10-27 16:40,2025-10-27 17:38,2025-10-27 18:12,"0,20",-34.251609802246094,-71.42633056640625,CONAF,Pastizal,,Las Cabras,Cachapoal,O'Higgins,8,06 O'Higgins,2025-10-27 16:40:00,lunes,17
791924130,RIHUE ALTO,Extinguido,156,8,2025-12-08 19:37,2025-12-08 20:28,2025-12-08 20:34,"0,04",-37.9555549621582,-73.39694213867188,CONAF,Matorral,,Cañete,Arauco,Biobío,11,08 Biobío,2025-12-08 19:37:00,lunes,20
792408625,ARIDOS SAN VICENTE,Extinguido,120,6,2025-12-10 15:16,2025-12-10 16:08,2025-12-10 16:15,"0,10",-34.41505432128906,-71.13719177246094,CONAF,Matorral,,San Vicente,Cachapoal,O'Higgins,8,06 O'Higgins,2025-12-10 15:16:00,miércoles,16
792414060,PIE ANDINO,Extinguido,220,13,2025-12-10 15:35,2025-12-10 17:17,2025-12-10 18:53,"3,50",-33.35416793823242,-70.4927749633789,CONAF,Pastizal,,Lo Barnechea,Santiago,Metropolitana,7,13 Metropolitana,2025-12-10 15:35:00,miércoles,16
790325364,SANTA ELOISA Y OTROS PART.,Extinguido,185,9,2025-11-28 15:20,2025-11-28 17:31,2025-11-29 14:15,"0,50",-38.997501373291016,-73.04805755615234,CONAF,Matorral,,Teodoro Schmidt,Cautín,La Araucanía,12,09 La Araucanía,2025-11-28 15:20:00,viernes,16
786906933,CODIGUA,Extinguido,118,13,2025-11-18 19:17,2025-11-18 20:15,2025-11-18 20:58,"0,60",-33.76469421386719,-71.3403091430664,CONAF,Pastizal,,Melipilla,Melipilla,Metropolitana,7,13 Metropolitana,2025-11-18 19:17:00,martes,20
786842304,FUNDO EL BOSQUE,Extinguido,119,13,2025-11-18 15:42,2025-11-18 21:23,2025-11-18 21:24,"0,01",-33.54288864135742,-70.80555725097656,CONAF,Pastizal,,Maipú,Santiago,Metropolitana,7,13 Metropolitana,2025-11-18 15:42:00,martes,16
791619096,POZO LASTRE,Extinguido,201,9,2025-12-07 14:33,2025-12-08 11:24,2025-12-09 19:23,"0,01",-39.010833740234375,-72.57971954345703,CONAF,Desechos,,Pitrufquén,Cautín,La Araucanía,12,09 La Araucanía,2025-12-07 14:33:00,domingo,15
792435003,FUNDO LAS CASAS DE PENCAHUE,Extinguido,121,6,2025-12-10 16:33,2025-12-10 18:40,2025-12-10 19:28,"0,40",-34.44094467163086,-71.1634750366211,CONAF,Matorral,,San Vicente,Cachapoal,O'Higgins,8,06 O'Higgins,2025-12-10 16:33:00,miércoles,17
791922876,PUENTE PEUMO 1,Extinguido,114,6,2025-12-08 19:16,2025-12-08 19:50,2025-12-08 20:05,"0,20",-34.4154167175293,-71.13780975341797,CONAF,Pastizal,,San Vicente,Cachapoal,O'Higgins,8,06 O'Higgins,2025-12-08 19:16:00,lunes,20
791818872,CAMINO PADRE HURTADO,Extinguido,205,13,2025-12-08 12:20,2025-12-08 13:47,2025-12-08 14:42,"5,00",-33.64055633544922,-70.66416931152344,CONAF,Pastizal,,San Bernardo,Maipo,Metropolitana,7,13 Metropolitana,2025-12-08 12:20:00,lunes,13
791861767,CERRO LAS ANTENAS,Extinguido,208,13,2025-12-08 15:23,2025-12-08 16:40,2025-12-08 16:42,"0,17",-33.64783477783203,-70.93633270263672,CONAF,Pastizal,,Talagante,Talagante,Metropolitana,7,13 Metropolitana,2025-12-08 15:23:00,lunes,16
791916537,JARDIN ALTO,Extinguido,212,13,2025-12-08 18:47,2025-12-08 20:08,2025-12-08 20:35,"0,44",-33.42955780029297,-71.16683197021484,CONAF,Pastizal,,Curacaví,Melipilla,Metropolitana,7,13 Metropolitana,2025-12-08 18:47:00,lunes,19
792429900,VISTA ALEGRE,Extinguido,221,13,2025-12-10 16:20,2025-12-10 17:33,2025-12-10 17:56,"1,00",-33.27691650390625,-70.89350128173828,CONAF,Pastizal,,Lampa,Chacabuco,Metropolitana,7,13 Metropolitana,2025-12-10 16:20:00,miércoles,17
787088983,PORTAL NEVADO,Extinguido,92,5,2025-11-19 14:00,2025-11-19 16:00,2025-11-19 16:36,"0,13",-32.81622314453125,-70.61911010742188,CONAF,Pastizal,,Los Andes,Los Andes,Valparaíso,6,05 Valparaíso,2025-11-19 14:00:00,miércoles,15
791939171,LOS ORIONES,Extinguido,157,8,2025-12-08 20:46,2025-12-08 21:40,2025-12-08 21:40,"0,10",-37.453609466552734,-72.34139251708984,CONAF,Desechos,,Los Angeles,Biobio,Biobío,11,08 Biobío,2025-12-08 20:46:00,lunes,21
786929618,MONTE LEON,Extinguido,70,16,2025-11-18 21:01,2025-11-18 22:08,2025-11-18 22:32,"0,20",-36.516944885253906,-72.06916809082031,CONAF,Pastizal,,San Carlos,Punilla,Ñuble,10,16 Ñuble,2025-11-18 21:01:00,martes,22
787877061,TARAHUIN,Extinguido,36,10,2025-11-22 14:51,2025-11-22 16:26,2025-11-22 16:40,"0,25",-42.71694564819336,-73.79499816894531,CONAF,Matorral,,Chonchi,Chiloé,Los Lagos,14,10 Los Lagos,2025-11-22 14:51:00,sábado,15
791931773,RALUYA,Extinguido,15,14,2025-12-08 19:58,2025-12-08 20:46,2025-12-08 21:02,"0,10",-39.55766677856445,-72.85514831542969,Empresa,Plantación pino,,Mariquina,Valdivia,Los Ríos,13,14 Los Ríos,2025-12-08 19:58:00,lunes,20
786594515,90 - EL CASTILLO 2 (PARTICULAR),Extinguido,90,7,2025-11-17 16:24,2025-11-18 10:05,2025-11-18 14:53,"4,50",-35.92461013793945,-72.38639068603516,CONAF,Plantación pino,,Cauquenes,Cauquenes,Maule,9,07 Maule,2025-11-17 16:24:00,lunes,17
789333885,SENDA CENTRAL,Extinguido,47,10,2025-11-28 16:00,2025-11-28 18:31,2025-11-29 17:53,"0,13",-41.404998779296875,-72.89277648925781,CONAF,Matorral,,Puerto Montt,Llanquihue,Los Lagos,14,10 Los Lagos,2025-11-28 16:00:00,viernes,17
792265549,SANTA ISABEL DE RARINCO,Extinguido,198,8,2025-12-10 03:16,2025-12-10 04:41,2025-12-15 09:00,"0,57",-37.411109924316406,-72.25027465820312,Empresa,,,Los Angeles,Biobio,Biobío,11,08 Biobío,2025-12-10 03:16:00,miércoles,4
791904216,CURTIDURíA,Extinguido,186,7,2025-12-08 18:00,2025-12-08 19:15,2025-12-08 19:36,"0,50",-35.45722198486328,-71.91500091552734,CONAF,Pastizal,,Pencahue,Talca,Maule,9,07 Maule,2025-12-08 18:00:00,lunes,19
791907241,LOS PATOS,Extinguido,185,7,2025-12-08 18:12,2025-12-08 19:05,2025-12-08 19:27,"0,80",-35.46833419799805,-71.65888977050781,CONAF,Pastizal,,Maule,Talca,Maule,9,07 Maule,2025-12-08 18:12:00,lunes,19
792671694,EL TRANQUE,Extinguido,227,9,2025-12-11 14:35,2025-12-11 16:12,2025-12-11 16:53,"0,82",-37.78303146362305,-72.67285919189453,CONAF,Pastizal,,Angol,Malleco,La Araucanía,12,09 La Araucanía,2025-12-11 14:35:00,jueves,15
792448140,LAS BRUJAS 2,Extinguido,198,7,2025-12-10 17:32,2025-12-10 18:30,2025-12-10 18:49,"0,50",-35.246665954589844,-71.38694763183594,CONAF,Pastizal,,Río Claro,Talca,Maule,9,07 Maule,2025-12-10 17:32:00,miércoles,18
792214200,LA PATAGUILLA,Extinguido,118,6,2025-12-09 20:30,2025-12-09 21:45,2025-12-09 21:50,"0,01",-34.66810607910156,-71.3934555053711,CONAF,Matorral,,Santa Cruz,Colchagua,O'Higgins,8,06 O'Higgins,2025-12-09 20:30:00,martes,21
789383804,RESERVA FUTALEUFÚ,Extinguido,49,10,2025-11-28 19:37,2025-11-29 16:23,2025-11-29 18:42,"0,01",-43.19444274902344,-71.79277801513672,CONAF,Arbolado natural,Futaleufú,Futaleufú,Palena,Los Lagos,14,10 Los Lagos,2025-11-28 19:37:00,viernes,20
792406620,LAS ACACIAS,Extinguido,197,7,2025-12-10 15:12,2025-12-10 16:47,2025-12-10 18:34,"1,90",-34.959720611572266,-71.20722198486328,CONAF,Pastizal,,Curicó,Curicó,Maule,9,07 Maule,2025-12-10 15:12:00,miércoles,16
792080482,ANTIQUINA ALTO,Extinguido,158,8,2025-12-09 12:18,2025-12-09 15:50,2025-12-11 00:34,"5,50",-38.04722213745117,-73.3597183227539,CONAF,Desechos,,Cañete,Arauco,Biobío,11,08 Biobío,2025-12-09 12:18:00,martes,13
792497113,EL MIRADOR,Extinguido,65,10,2025-12-10 21:01,2025-12-11 01:59,2025-12-11 20:05,"0,50",-42.5565185546875,-73.761474609375,CONAF,Matorral,,Chonchi,Chiloé,Los Lagos,14,10 Los Lagos,2025-12-10 21:01:00,miércoles,22
785350828,EL PANUL,Extinguido,74,13,2025-11-11 13:17,2025-11-11 15:02,2025-11-11 15:24,"0,50",-33.538028717041016,-70.53319549560547,CONAF,Pastizal,,La Florida,Santiago,Metropolitana,7,13 Metropolitana,2025-11-11 13:17:00,martes,14
782314669,CUESTA EL MELON,Extinguido,26,5,2025-10-25 11:09,2025-10-25 12:23,2025-10-25 12:23,"0,10",-32.63197326660156,-71.23155975341797,CONAF,Pastizal,,Nogales,Quillota,Valparaíso,6,05 Valparaíso,2025-10-25 11:09:00,sábado,12
788586415,VADO LA PATAGUA,Extinguido,128,7,2025-11-25 14:59,2025-11-25 16:39,2025-11-25 17:21,"2,00",-35.73377990722656,-72.03321838378906,CONAF,Pastizal,,San Javier,Linares,Maule,9,07 Maule,2025-11-25 14:59:00,martes,15
783558318,SANTA ELVIRA,Extinguido,73,9,2025-11-01 20:41,2025-11-02 16:56,2025-11-03 08:43,"2,70",-38.11083221435547,-72.51667022705078,CONAF,Plantación eucaliptus,,Traiguén,Malleco,La Araucanía,12,09 La Araucanía,2025-11-01 20:41:00,sábado,21
787585651,CALBUCO,Extinguido,127,13,2025-11-21 13:38,2025-11-21 15:24,2025-11-21 15:47,"2,00",-33.29138946533203,-70.87777709960938,CONAF,Pastizal,,Lampa,Chacabuco,Metropolitana,7,13 Metropolitana,2025-11-21 13:38:00,viernes,14
792093289,SAN CAMILO,Extinguido,192,7,2025-12-09 13:17,2025-12-09 14:25,2025-12-09 14:27,"0,30",-35.162498474121094,-71.35055541992188,CONAF,Pastizal,,Río Claro,Talca,Maule,9,07 Maule,2025-12-09 13:17:00,martes,14
792123607,LO ECHEVERS 3,Extinguido,215,13,2025-12-09 14:58,2025-12-09 16:26,2025-12-09 17:22,"0,30",-33.334442138671875,-70.80833435058594,CONAF,Basural,,Lampa,Chacabuco,Metropolitana,7,13 Metropolitana,2025-12-09 14:58:00,martes,15
790551416,LLIU LLIU 3,Extinguido,145,5,2025-12-03 15:09,2025-12-03 17:25,2025-12-03 19:16,"2,80",-33.0490837097168,-71.19702911376953,CONAF,Pastizal,,Limache,Marga Marga,Valparaíso,6,05 Valparaíso,2025-12-03 15:09:00,miércoles,16
792464191,HIJUELA HUACHA,Extinguido,200,9,2025-12-10 18:21,2025-12-11 14:15,2025-12-16 13:54,"6,40",-38.475555419921875,-72.6852798461914,Empresa,,,Galvarino,Cautín,La Araucanía,12,09 La Araucanía,2025-12-10 18:21:00,miércoles,19
791920593,RN. VILLARRICA (F) PANQUI 2,Extinguido,209,9,2025-12-08 17:59,2025-12-09 15:53,2025-12-09 15:53,"0,01",-39.24416732788086,-71.50389099121094,CONAF,Otros,Villarrica,Curarrehue,Cautín,La Araucanía,12,09 La Araucanía,2025-12-08 17:59:00,lunes,18
787615211,SECTOR LAS CATITAS,Extinguido,98,5,2025-11-21 15:21,2025-11-21 16:27,2025-11-21 17:05,"0,04",-32.726165771484375,-71.41925048828125,CONAF,Pastizal,,Puchuncavi,Valparaíso,Valparaíso,6,05 Valparaíso,2025-11-21 15:21:00,viernes,16
788238609,FUNDO SEMINARIO 4,Extinguido,106,5,2025-11-24 06:20,2025-11-29 10:53,2025-12-17 09:20,"0,18",-33.42449951171875,-71.68333435058594,CONAF,Desechos,,El Quisco,San Antonio,Valparaíso,6,05 Valparaíso,2025-11-24 06:20:00,lunes,7
792474889,VIÑA DEL MAR,Extinguido,199,7,2025-12-10 19:22,2025-12-10 20:13,2025-12-10 20:54,"1,70",-36.12861251831055,-71.8308334350586,CONAF,Pastizal,,Parral,Linares,Maule,9,07 Maule,2025-12-10 19:22:00,miércoles,20
792094543,PUERTAS DE FIERRO 3,Extinguido,115,6,2025-12-09 13:20,2025-12-09 14:53,2025-12-09 16:50,"4,80",-34.16524887084961,-70.80533599853516,CONAF,Pastizal,,Rancagua,Cachapoal,O'Higgins,8,06 O'Higgins,2025-12-09 13:20:00,martes,14
792128077,CERRO LA VIRGEN,Extinguido,214,13,2025-12-09 15:18,2025-12-09 19:02,2025-12-10 17:58,"8,00",-33.577667236328125,-70.90460968017578,CONAF,Pastizal,,Padre Hurtado,Talagante,Metropolitana,7,13 Metropolitana,2025-12-09 15:18:00,martes,16
791858898,RN VILLARRICA - PANQUI 1,Extinguido,207,9,2025-12-08 15:10,2025-12-09 14:01,2025-12-10 23:14,"0,01",-39.246944427490234,-71.52166748046875,CONAF,Arbolado natural,Villarrica,Curarrehue,Cautín,La Araucanía,12,09 La Araucanía,2025-12-08 15:10:00,lunes,16
792514064,VOLCAN PUNTIAGUDO,Extinguido,66,10,2025-12-10 20:53,2025-12-10 23:51,2025-12-10 23:52,"0,03",-41.48344421386719,-72.98114013671875,CONAF,Matorral,,Puerto Montt,Llanquihue,Los Lagos,14,10 Los Lagos,2025-12-10 20:53:00,miércoles,21
792105856,FILOCO 2,Extinguido,216,9,2025-12-09 13:57,2025-12-09 18:38,2025-12-09 21:28,"3,50",-39.03889083862305,-72.8116683959961,CONAF,Pastizal,,Pitrufquén,Cautín,La Araucanía,12,09 La Araucanía,2025-12-09 13:57:00,martes,14
792110308,SAN CARLOS (CAUTIN),Extinguido,207,9,2025-12-09 13:57,2025-12-09 17:30,2025-12-13 15:00,"0,20",-38.718055725097656,-72.93805694580078,Empresa,,,Nueva Imperial,Cautín,La Araucanía,12,09 La Araucanía,2025-12-09 13:57:00,martes,14
792382781,CAMINO CHICAUMA 3,Extinguido,218,13,2025-12-10 13:51,2025-12-10 15:10,2025-12-10 15:12,"0,10",-33.24388885498047,-70.90666961669922,CONAF,Pastizal,,Lampa,Chacabuco,Metropolitana,7,13 Metropolitana,2025-12-10 13:51:00,miércoles,14
792164351,PARQUE BELLAVISTA,Extinguido,63,10,2025-12-09 17:22,2025-12-09 20:03,2025-12-09 20:03,"0,12",-40.59362030029297,-73.10474395751953,CONAF,Matorral,,Osorno,Osorno,Los Lagos,14,10 Los Lagos,2025-12-09 17:22:00,martes,18
792130315,TUNCA DEL MEDIO,Extinguido,116,6,2025-12-09 15:28,2025-12-09 16:15,2025-12-09 18:27,"1,00",-34.39950180053711,-71.09107971191406,CONAF,Pastizal,,San Vicente,Cachapoal,O'Higgins,8,06 O'Higgins,2025-12-09 15:28:00,martes,16
792735453,LOMAS DE QUILICURA,Extinguido,224,13,2025-12-11 18:33,2025-12-11 19:42,2025-12-11 19:44,"0,10",-33.347694396972656,-70.75724792480469,CONAF,Pastizal,,Quilicura,Santiago,Metropolitana,7,13 Metropolitana,2025-12-11 18:33:00,jueves,19
792990047,HUERTOS FAMILIARES 2,Extinguido,229,13,2025-12-12 17:17,2025-12-12 18:44,2025-12-12 21:03,"10,00",-33.111167907714844,-70.78133392333984,CONAF,Pastizal,,Tiltil,Chacabuco,Metropolitana,7,13 Metropolitana,2025-12-12 17:17:00,viernes,18
792171559,VALLE LOS ARTISTAS,Extinguido,117,6,2025-12-09 17:45,2025-12-09 19:05,2025-12-09 19:40,"1,00",-34.873111724853516,-71.69102478027344,CONAF,Cultivo agrícola,,Lolol,Colchagua,O'Higgins,8,06 O'Higgins,2025-12-09 17:45:00,martes,18
792435636,CONVENTO VIEJO 1,Extinguido,123,6,2025-12-10 16:40,2025-12-10 19:08,2025-12-11 12:15,"0,20",-34.72633361816406,-71.10855865478516,CONAF,Matorral,,Chimbarongo,Colchagua,O'Higgins,8,06 O'Higgins,2025-12-10 16:40:00,miércoles,17
786870802,FAMAE,Extinguido,116,13,2025-11-18 17:05,2025-11-18 18:49,2025-11-18 19:05,"1,00",-33.642250061035156,-70.9316635131836,CONAF,Pastizal,,Talagante,Talagante,Metropolitana,7,13 Metropolitana,2025-11-18 17:05:00,martes,18
792171813,CENTINELA,Extinguido,194,7,2025-12-09 17:51,2025-12-09 19:22,2025-12-09 20:38,"1,00",-35.364723205566406,-71.55999755859375,CONAF,Pastizal,,Talca,Talca,Maule,9,07 Maule,2025-12-09 17:51:00,martes,18
791659846,LOS CRISTALES,Extinguido,155,8,2025-12-07 17:46,2025-12-07 18:58,2025-12-07 20:57,"1,01",-37.55888748168945,-72.27083587646484,CONAF,Pastizal,,Los Angeles,Biobio,Biobío,11,08 Biobío,2025-12-07 17:46:00,domingo,18
789986186,LINDEROS,Extinguido,171,13,2025-12-01 14:24,2025-12-01 16:06,2025-12-01 16:22,"2,50",-33.80622100830078,-70.71058654785156,CONAF,Pastizal,,Paine,Maipo,Metropolitana,7,13 Metropolitana,2025-12-01 14:24:00,lunes,15
791633842,SAN FABIAN,Extinguido,108,16,2025-12-07 15:40,2025-12-07 17:39,2025-12-07 17:40,"0,24",-36.572776794433594,-71.55332946777344,CONAF,Pastizal,,San Fabián,Punilla,Ñuble,10,16 Ñuble,2025-12-07 15:40:00,domingo,16
791672193,LA MEDIA LUNA,Extinguido,59,10,2025-12-07 18:13,2025-12-07 19:03,2025-12-07 19:11,"0,02",-42.36750030517578,-73.65028381347656,CONAF,Matorral,,Dalcahue,Chiloé,Los Lagos,14,10 Los Lagos,2025-12-07 18:13:00,domingo,19
791872405,EL LINGUE BAJO 3,Extinguido,208,9,2025-12-08 15:58,2025-12-08 18:18,2025-12-09 21:25,"1,46",-38.13083267211914,-72.99527740478516,CONAF,Plantación pino,,Lumaco,Malleco,La Araucanía,12,09 La Araucanía,2025-12-08 15:58:00,lunes,16
791652442,POCOCHAY - EL NARANJAL,Extinguido,154,5,2025-12-07 17:06,2025-12-07 19:29,2025-12-07 20:48,"0,52",-32.83247375488281,-71.20494079589844,CONAF,Pastizal,,La Cruz,Quillota,Valparaíso,6,05 Valparaíso,2025-12-07 17:06:00,domingo,18
786862176,ISLA SANTA MARIA II,Extinguido,88,8,2025-11-18 16:42,2025-11-18 18:28,2025-11-20 11:47,"5,00",-37.00138854980469,-73.53221893310547,CONAF,Matorral,,Coronel,Concepción,Biobío,11,08 Biobío,2025-11-18 16:42:00,martes,17
792397410,SANTA ROSA 3,Extinguido,219,13,2025-12-10 14:35,2025-12-10 16:53,2025-12-10 17:30,"1,00",-33.254722595214844,-70.75944519042969,CONAF,Pastizal,,Lampa,Chacabuco,Metropolitana,7,13 Metropolitana,2025-12-10 14:35:00,miércoles,15
786877949,ANTIGUALA,Extinguido,89,8,2025-11-18 17:34,2025-11-18 18:54,2025-11-18 22:09,"0,10",-37.678611755371094,-73.38749694824219,CONAF,Matorral,,Los Alamos,Arauco,Biobío,11,08 Biobío,2025-11-18 17:34:00,martes,18
786888885,"ZANJA, LA",Extinguido,69,8,2025-11-18 17:51,2025-11-18 18:50,2025-11-18 20:29,"0,03",-37.66972351074219,-73.52527618408203,Empresa,,,Lebu,Arauco,Biobío,11,08 Biobío,2025-11-18 17:51:00,martes,18
792684450,LAS TURBINAS,Extinguido,112,16,2025-12-11 15:28,2025-12-11 18:20,2025-12-12 18:45,"0,01",-36.870277404785156,-71.65750122070312,CONAF,Arbolado natural,,Pinto,Diguillín,Ñuble,10,16 Ñuble,2025-12-11 15:28:00,jueves,16
791647288,COIPUE,Extinguido,180,7,2025-12-07 16:35,2025-12-07 18:50,2025-12-07 21:19,"2,30",-35.23472213745117,-72.12444305419922,CONAF,Pastizal,,Curepto,Talca,Maule,9,07 Maule,2025-12-07 16:35:00,domingo,17
791652312,LEUFUCHE,Extinguido,202,9,2025-12-07 15:43,2025-12-07 20:12,2025-12-07 20:27,"0,04",-38.95138931274414,-72.08499908447266,CONAF,Plantación pino,,Cunco,Cautín,La Araucanía,12,09 La Araucanía,2025-12-07 15:43:00,domingo,16
791655479,FUNDO EL GRIFO,Extinguido,108,6,2025-12-07 17:00,2025-12-07 18:20,2025-12-07 18:44,"0,30",-34.477359771728516,-71.18819427490234,CONAF,Pastizal,,San Vicente,Cachapoal,O'Higgins,8,06 O'Higgins,2025-12-07 17:00:00,domingo,18
792189416,EL DURAZNO,Extinguido,196,7,2025-12-09 18:53,2025-12-10 15:14,2025-12-11 14:12,"11,20",-35.17766571044922,-71.62017059326172,CONAF,Pastizal,,Sagrada Familia,Curicó,Maule,9,07 Maule,2025-12-09 18:53:00,martes,19
792235885,CARMEN DE ANGOL,Extinguido,191,9,2025-12-06 02:40,2025-12-06 09:38,2025-12-06 12:30,"1,00",-37.934444427490234,-72.54444122314453,Empresa,,,Angol,Malleco,La Araucanía,12,09 La Araucanía,2025-12-06 02:40:00,sábado,3
792138197,CALLE 3,Extinguido,62,10,2025-12-09 15:40,2025-12-09 16:45,2025-12-09 17:20,"0,01",-41.402137756347656,-72.89720153808594,CONAF,,,Puerto Montt,Llanquihue,Los Lagos,14,10 Los Lagos,2025-12-09 15:40:00,martes,16
786165769,LOMA ALTA,Extinguido,62,8,2025-11-15 10:07,2025-11-15 11:15,2025-11-15 13:26,"0,18",-36.63694381713867,-72.90528106689453,Empresa,,,Tomé,Concepción,Biobío,11,08 Biobío,2025-11-15 10:07:00,sábado,11
791601805,TUCAPEL,Extinguido,152,8,2025-12-07 12:57,2025-12-07 15:49,2025-12-08 10:08,"0,68",-37.76222229003906,-73.39583587646484,CONAF,Pastizal,,Cañete,Arauco,Biobío,11,08 Biobío,2025-12-07 12:57:00,domingo,13
791651797,RUTA 68 - KM 61,Extinguido,153,5,2025-12-07 17:04,2025-12-07 17:50,2025-12-07 18:08,"0,08",-33.361331939697266,-71.32050323486328,CONAF,Pastizal,,Casablanca,Valparaíso,Valparaíso,6,05 Valparaíso,2025-12-07 17:04:00,domingo,18
791679342,CONQUEHUA,Extinguido,203,9,2025-12-07 19:17,2025-12-07 20:10,2025-12-08 06:37,"0,40",-38.239166259765625,-72.2300033569336,CONAF,Matorral,,Victoria,Malleco,La Araucanía,12,09 La Araucanía,2025-12-07 19:17:00,domingo,20
788315797,LAS BATEAS,Extinguido,142,13,2025-11-24 13:22,2025-11-24 14:28,2025-11-24 14:30,"0,01",-32.95016860961914,-70.80477905273438,CONAF,Pastizal,,Tiltil,Chacabuco,Metropolitana,7,13 Metropolitana,2025-11-24 13:22:00,lunes,14
790194582,PIEDRA AMARILLA,Extinguido,173,16,2025-11-30 16:15,2025-11-30 17:20,2025-11-30 17:25,"0,00",-36.29066848754883,-72.48291778564453,Empresa,,,Quirihue,Itata,Ñuble,10,16 Ñuble,2025-11-30 16:15:00,domingo,17
792183773,COLHUE,Extinguido,161,8,2025-12-09 18:28,2025-12-10 11:27,2025-12-11 00:35,"0,10",-37.75416564941406,-73.55805969238281,CONAF,Matorral,,Lebu,Arauco,Biobío,11,08 Biobío,2025-12-09 18:28:00,martes,19
791660196,MAICA,Extinguido,181,7,2025-12-07 17:48,2025-12-07 22:17,2025-12-08 14:42,"12,60",-35.74216842651367,-71.74008178710938,CONAF,Pastizal,,Linares,Linares,Maule,9,07 Maule,2025-12-07 17:48:00,domingo,18
791789094,LO FIGUEROA 2,Extinguido,182,7,2025-12-08 10:14,2025-12-08 10:50,2025-12-08 10:57,"0,10",-35.40361022949219,-71.7572250366211,CONAF,Pastizal,,Pencahue,Talca,Maule,9,07 Maule,2025-12-08 10:14:00,lunes,11
790858323,FUNDO EL CARMEN,Extinguido,149,5,2025-12-04 15:32,2025-12-04 16:23,2025-12-04 16:53,"0,10",-33.04194259643555,-71.445556640625,CONAF,Pastizal,,Quilpué,Marga Marga,Valparaíso,6,05 Valparaíso,2025-12-04 15:32:00,jueves,16
786844319,LO PINTO 2,Extinguido,115,13,2025-11-18 15:48,2025-11-18 18:12,2025-11-18 19:59,"4,00",-33.264888763427734,-70.74527740478516,CONAF,Pastizal,,Colina,Chacabuco,Metropolitana,7,13 Metropolitana,2025-11-18 15:48:00,martes,16
791795624,YERBAS BUENAS,Extinguido,109,6,2025-12-08 09:58,2025-12-08 11:25,2025-12-08 11:45,"0,15",-34.43675994873047,-71.66480255126953,CONAF,Pastizal,,Marchigue,Cardenal Caro,O'Higgins,8,06 O'Higgins,2025-12-08 09:58:00,lunes,10
791814591,ESTADIO LEBU,Extinguido,189,8,2025-12-07 18:32,2025-12-07 19:08,2025-12-07 19:22,"0,01",-37.60194396972656,-73.64083099365234,Empresa,,,Lebu,Arauco,Biobío,11,08 Biobío,2025-12-07 18:32:00,domingo,19
792451208,PUENTE CODAO,Extinguido,124,6,2025-12-10 17:39,2025-12-10 18:35,2025-12-10 19:52,"0,02",-34.3708610534668,-71.24869537353516,CONAF,Pastizal,,Pichidegua,Cachapoal,O'Higgins,8,06 O'Higgins,2025-12-10 17:39:00,miércoles,18
786874394,ALTO JAHUEL,Extinguido,117,13,2025-11-18 17:17,2025-11-18 19:07,2025-11-18 19:18,"0,01",-33.7361946105957,-70.71492004394531,CONAF,Pastizal,,Buin,Maipo,Metropolitana,7,13 Metropolitana,2025-11-18 17:17:00,martes,18
792412677,LLAVERIA,Extinguido,119,6,2025-12-10 15:31,2025-12-10 16:31,2025-12-10 17:01,"0,01",-34.17250061035156,-71.32888793945312,CONAF,Pastizal,,Las Cabras,Cachapoal,O'Higgins,8,06 O'Higgins,2025-12-10 15:31:00,miércoles,16
792440931,SAN  ROBERTO,Extinguido,122,6,2025-12-10 17:00,2025-12-10 17:58,2025-12-10 18:01,"0,20",-34.369693756103516,-71.3790283203125,CONAF,Pastizal,,Pichidegua,Cachapoal,O'Higgins,8,06 O'Higgins,2025-12-10 17:00:00,miércoles,18
792755800,LAS PATAGUAS,Extinguido,202,7,2025-12-11 20:04,2025-12-11 21:56,2025-12-11 22:06,"2,60",-36.13472366333008,-71.8838882446289,CONAF,Pastizal,,Parral,Linares,Maule,9,07 Maule,2025-12-11 20:04:00,jueves,21
792191203,MAQUEUTO II,Extinguido,162,8,2025-12-09 19:00,2025-12-09 20:57,2025-12-11 00:35,"0,60",-37.064998626708984,-72.95694732666016,CONAF,Matorral,,Hualqui,Concepción,Biobío,11,08 Biobío,2025-12-09 19:00:00,martes,20
792753841,CAMINO A POLPAICO,Extinguido,225,13,2025-12-11 19:53,2025-12-11 22:17,2025-12-11 22:29,"3,00",-33.12516784667969,-70.84432983398438,CONAF,Pastizal,,Tiltil,Chacabuco,Metropolitana,7,13 Metropolitana,2025-12-11 19:53:00,jueves,20
791816917,FUNDO EL CARPINTERO,Extinguido,155,5,2025-12-08 12:16,2025-12-08 13:00,2025-12-08 13:43,"0,15",-33.240028381347656,-71.3373031616211,CONAF,Pastizal,,Casablanca,Valparaíso,Valparaíso,6,05 Valparaíso,2025-12-08 12:16:00,lunes,13
792746044,LOS ANGELES II,Extinguido,172,8,2025-12-11 19:33,2025-12-11 20:30,2025-12-11 20:45,"0,03",-37.4738883972168,-72.38249969482422,CONAF,Pastizal,,Los Angeles,Biobio,Biobío,11,08 Biobío,2025-12-11 19:33:00,jueves,20
791592311,EL RADAL,Extinguido,56,10,2025-12-07 11:39,2025-12-07 15:17,2025-12-08 20:17,"3,20",-42.76422119140625,-73.78697204589844,CONAF,Pastizal,,Chonchi,Chiloé,Los Lagos,14,10 Los Lagos,2025-12-07 11:39:00,domingo,12
792157578,PULLALLAN,Extinguido,220,9,2025-12-09 15:22,2025-12-10 10:37,2025-12-10 10:37,"1,50",-38.77277755737305,-73.33583068847656,CONAF,Desechos,,Saavedra,Cautín,La Araucanía,12,09 La Araucanía,2025-12-09 15:22:00,martes,16
792149835,PINO HACHADO,Extinguido,219,9,2025-12-09 16:17,2025-12-10 15:23,2025-12-10 15:23,"0,20",-38.657779693603516,-70.9705581665039,CONAF,Arbolado natural,Alto Bio  Bio,Lonquimay,Malleco,La Araucanía,12,09 La Araucanía,2025-12-09 16:17:00,martes,17
792416033,CAMINO SAN GERONIMO,Extinguido,111,16,2025-12-10 15:01,2025-12-10 15:37,2025-12-10 15:38,"0,01",-36.56388854980469,-72.0633316040039,CONAF,Pastizal,,Chillán,Diguillín,Ñuble,10,16 Ñuble,2025-12-10 15:01:00,miércoles,16
791814995,PINGUERAL FBB,Extinguido,190,8,2025-12-07 21:08,2025-12-07 22:12,2025-12-07 22:30,"0,00",-36.5352783203125,-72.85305786132812,Empresa,,,Tomé,Concepción,Biobío,11,08 Biobío,2025-12-07 21:08:00,domingo,22
786903799,PATAGUA ORILLA,Extinguido,63,6,2025-11-18 18:30,2025-11-18 19:40,2025-11-18 20:00,"0,50",-34.28677749633789,-71.35380554199219,CONAF,Pastizal,,Las Cabras,Cachapoal,O'Higgins,8,06 O'Higgins,2025-11-18 18:30:00,martes,19
792142046,QUINO,Extinguido,218,9,2025-12-09 15:56,2025-12-09 16:47,2025-12-09 16:47,"0,37",-38.27138900756836,-72.37222290039062,CONAF,Matorral,,Victoria,Malleco,La Araucanía,12,09 La Araucanía,2025-12-09 15:56:00,martes,16
792076892,RANQUILHUE EL MALO,Extinguido,159,8,2025-12-09 12:14,2025-12-09 15:41,2025-12-11 00:33,"0,80",-38.128055572509766,-73.35739135742188,CONAF,Matorral,,Tirúa,Arauco,Biobío,11,08 Biobío,2025-12-09 12:14:00,martes,13
791670908,EL DESCABEZADO 2,Extinguido,188,8,2025-12-07 16:17,2025-12-07 16:51,2025-12-07 17:05,"0,06",-37.49416732788086,-73.32472229003906,Empresa,,,Curanilahue,Arauco,Biobío,11,08 Biobío,2025-12-07 16:17:00,domingo,17
789574808,TROMEN KM16,Extinguido,181,9,2025-11-29 18:43,2025-11-29 19:57,2025-11-29 20:07,"0,20",-38.71906661987305,-72.73805236816406,CONAF,Pastizal,,Temuco,Cautín,La Araucanía,12,09 La Araucanía,2025-11-29 18:43:00,sábado,19
792466094,PASO HONDO,Extinguido,200,7,2025-12-10 18:42,2025-12-10 19:35,2025-12-10 20:07,"0,30",-36.08555603027344,-71.96194458007812,CONAF,Matorral,,Parral,Linares,Maule,9,07 Maule,2025-12-10 18:42:00,miércoles,19
791824419,LA GRANJITA,Extinguido,37,4,2025-12-08 12:34,2025-12-08 14:35,2025-12-08 16:32,"2,56",-30.766305923461914,-71.3058090209961,CONAF,Pastizal,,Punitaqui,Limarí,Coquimbo,5,04 Coquimbo,2025-12-08 12:34:00,lunes,13
791822327,LO NARVAEZ,Extinguido,156,5,2025-12-08 12:41,2025-12-08 14:25,2025-12-08 14:46,"0,73",-33.006465911865234,-71.17876434326172,CONAF,Pastizal,,Olmué,Marga Marga,Valparaíso,6,05 Valparaíso,2025-12-08 12:41:00,lunes,13
791943958,PN. CONGUILLIO - SIERRA NEVADA,Extinguido,211,9,2025-12-08 21:03,2025-12-10 15:58,2025-12-13 18:21,"0,15",-38.67972183227539,-71.55638885498047,CONAF,Arbolado natural,Conguillio,Melipeuco,Cautín,La Araucanía,12,09 La Araucanía,2025-12-08 21:03:00,lunes,22
791831539,CHANQUEAHUE,Extinguido,110,6,2025-12-08 13:15,2025-12-08 14:50,2025-12-08 15:30,"2,10",-34.416194915771484,-70.78888702392578,CONAF,Pastizal,,Rengo,Cachapoal,O'Higgins,8,06 O'Higgins,2025-12-08 13:15:00,lunes,14
792184274,LAS ROSAS Y LAS CABRAS,Extinguido,193,7,2025-12-09 18:27,2025-12-09 20:28,2025-12-10 14:05,"0,03",-35.33194351196289,-71.961669921875,Empresa,Desechos,,Pencahue,Talca,Maule,9,07 Maule,2025-12-09 18:27:00,martes,19
791827866,PICHINGAL,Extinguido,183,7,2025-12-08 13:08,2025-12-08 14:45,2025-12-08 15:44,"0,20",-35.10472106933594,-71.22333526611328,CONAF,Pastizal,,Molina,Curicó,Maule,9,07 Maule,2025-12-08 13:08:00,lunes,14
791848261,LOS CAPACHOS,Extinguido,206,13,2025-12-08 14:20,2025-12-08 15:42,2025-12-08 15:59,"0,50",-33.42988967895508,-71.16780853271484,CONAF,Pastizal,,Curacaví,Melipilla,Metropolitana,7,13 Metropolitana,2025-12-08 14:20:00,lunes,15
791876146,PELLUCO ALTO,Extinguido,60,10,2025-12-08 15:50,2025-12-08 16:30,2025-12-08 17:04,"0,07",-41.48324966430664,-72.88249969482422,CONAF,,,Puerto Montt,Llanquihue,Los Lagos,14,10 Los Lagos,2025-12-08 15:50:00,lunes,16
787642035,ACONCAGUA,Extinguido,132,13,2025-11-21 15:47,2025-11-21 17:42,2025-11-21 17:52,"0,50",-33.18894577026367,-70.67666625976562,CONAF,Pastizal,,Colina,Chacabuco,Metropolitana,7,13 Metropolitana,2025-11-21 15:47:00,viernes,16
791874721,BARACALDO,Extinguido,209,13,2025-12-08 16:05,2025-12-08 16:59,2025-12-08 17:09,"0,10",-33.52583312988281,-71.18111419677734,CONAF,Pastizal,,María Pinto,Melipilla,Metropolitana,7,13 Metropolitana,2025-12-08 16:05:00,lunes,17
786813008,EL ARROZAL,Extinguido,62,6,2025-11-18 14:13,2025-11-18 16:50,2025-11-18 18:50,"6,50",-34.09513854980469,-70.78172302246094,CONAF,Pastizal,,Graneros,Cachapoal,O'Higgins,8,06 O'Higgins,2025-11-18 14:13:00,martes,15
792711640,SANTA ISABEL,Extinguido,201,7,2025-12-11 17:04,2025-12-11 18:59,2025-12-11 19:32,"0,60",-36.10102844238281,-71.74908447265625,CONAF,Pastizal,,Retiro,Linares,Maule,9,07 Maule,2025-12-11 17:04:00,jueves,18
794350934,PACHAGUA,Extinguido,201,8,2025-12-17 12:53,2025-12-17 14:26,2025-12-17 16:54,"2,15",-36.93333435058594,-72.52861022949219,CONAF,Pastizal,,Yumbel,Biobio,Biobío,11,08 Biobío,2025-12-17 12:53:00,miércoles,13
787638020,SAN SEBASTIAN,Extinguido,110,7,2025-11-21 16:36,2025-11-21 17:55,2025-11-21 18:04,"0,30",-35.420833587646484,-71.69000244140625,CONAF,Pastizal,,Talca,Talca,Maule,9,07 Maule,2025-11-21 16:36:00,viernes,17
794093167,CONUCO (VIII),Extinguido,198,8,2025-12-16 18:12,2025-12-17 14:11,2025-12-18 18:14,"0,01",-36.65444564819336,-72.70916748046875,CONAF,,,Florida,Concepción,Biobío,11,08 Biobío,2025-12-16 18:12:00,martes,19
786371537,ANDREA DEL VERROCHIO,Extinguido,79,5,2025-11-16 16:15,2025-11-16 17:11,2025-11-16 17:28,"0,58",-32.88519287109375,-71.26866912841797,CONAF,Pastizal,,Quillota,Quillota,Valparaíso,6,05 Valparaíso,2025-11-16 16:15:00,domingo,17
794105666,SANTA ADRIANA,Extinguido,199,8,2025-12-16 18:28,2025-12-16 22:38,2025-12-18 12:12,"0,79",-37.779720306396484,-71.99388885498047,CONAF,Plantación pino,,Mulchén,Biobio,Biobío,11,08 Biobío,2025-12-16 18:28:00,martes,19
794784510,PORTEZUELO,Extinguido,140,6,2025-12-18 15:00,2025-12-18 16:53,2025-12-18 17:08,"1,50",-34.71638488769531,-71.39761352539062,CONAF,Cultivo agrícola,,Santa Cruz,Colchagua,O'Higgins,8,06 O'Higgins,2025-12-18 15:00:00,jueves,16
794488752,CALLE MARATHON 4,Extinguido,186,5,2025-12-17 18:34,2025-12-17 20:43,2025-12-17 20:43,"0,18",-32.78066635131836,-71.20922088623047,CONAF,Pastizal,,Calera,Quillota,Valparaíso,6,05 Valparaíso,2025-12-17 18:34:00,miércoles,19
794353800,BUENA ESTRELLA,Extinguido,228,7,2025-12-17 12:58,2025-12-17 13:59,2025-12-17 14:33,"0,10",-35.510833740234375,-71.66889190673828,CONAF,Pastizal,,Maule,Talca,Maule,9,07 Maule,2025-12-17 12:58:00,miércoles,13
791638856,PARRON DEL HUIQUE,Extinguido,107,6,2025-12-07 15:48,2025-12-07 16:40,2025-12-07 17:11,"0,10",-34.512306213378906,-71.34241485595703,CONAF,Pastizal,,Palmilla,Colchagua,O'Higgins,8,06 O'Higgins,2025-12-07 15:48:00,domingo,16
794837749,EL CARDAL,Extinguido,141,6,2025-12-18 17:25,2025-12-18 18:40,2025-12-18 20:10,"0,30",-34.663692474365234,-71.1866683959961,CONAF,Matorral,,Nancagua,Colchagua,O'Higgins,8,06 O'Higgins,2025-12-18 17:25:00,jueves,18
792766595,MARRUECOS,Extinguido,226,13,2025-12-11 21:13,2025-12-12 03:00,2025-12-12 13:58,"1,80",-33.5452766418457,-70.81666564941406,CONAF,Pastizal,,Padre Hurtado,Talagante,Metropolitana,7,13 Metropolitana,2025-12-11 21:13:00,jueves,22
792985660,PILMAIQUEN,Extinguido,19,14,2025-12-12 17:04,2025-12-12 18:31,2025-12-12 18:31,"0,10",-40.37527847290039,-72.98805236816406,CONAF,Desechos,,Río Bueno,Ranco,Los Ríos,13,14 Los Ríos,2025-12-12 17:04:00,viernes,18
792933295,CALLE AGUIRRE,Extinguido,161,5,2025-12-12 13:38,2025-12-12 17:00,2025-12-12 17:39,"2,89",-32.72919464111328,-70.76543426513672,CONAF,Pastizal,,San Felipe,San Felipe de Aconcagua,Valparaíso,6,05 Valparaíso,2025-12-12 13:38:00,viernes,14
794766633,UCUQUER,Extinguido,139,6,2025-12-18 14:00,2025-12-18 17:33,2025-12-18 19:00,"1,10",-34.063777923583984,-71.66535949707031,CONAF,Pastizal,,Litueche,Cardenal Caro,O'Higgins,8,06 O'Higgins,2025-12-18 14:00:00,jueves,15
792957095,MONTE ALEGRE,Extinguido,228,13,2025-12-12 15:00,2025-12-12 16:18,2025-12-12 17:39,"0,50",-33.63666534423828,-71.30821990966797,CONAF,Pastizal,,Melipilla,Melipilla,Metropolitana,7,13 Metropolitana,2025-12-12 15:00:00,viernes,16
792934429,EL MANZANITO,Extinguido,227,13,2025-12-12 13:37,2025-12-12 14:33,2025-12-12 14:51,"0,30",-33.872276306152344,-70.8459701538086,CONAF,Pastizal,,Paine,Maipo,Metropolitana,7,13 Metropolitana,2025-12-12 13:37:00,viernes,14
792642616,LAS ESTERAS SUR,Extinguido,222,13,2025-12-11 12:43,2025-12-11 13:40,2025-12-11 16:44,"1,20",-33.345970153808594,-70.71941375732422,CONAF,Pastizal,,Quilicura,Santiago,Metropolitana,7,13 Metropolitana,2025-12-11 12:43:00,jueves,13
792382655,PAICAVI CHICO,Extinguido,165,8,2025-12-10 13:58,2025-12-11 12:09,2025-12-13 07:26,"5,93",-37.95722198486328,-73.4527816772461,CONAF,,,Cañete,Arauco,Biobío,11,08 Biobío,2025-12-10 13:58:00,miércoles,14
786396125,EL BOCO 3,Extinguido,80,5,2025-11-16 18:29,2025-11-16 19:42,2025-11-16 19:44,"0,12",-32.88458251953125,-71.26911163330078,CONAF,Pastizal,,Quillota,Quillota,Valparaíso,6,05 Valparaíso,2025-11-16 18:29:00,domingo,19
793144222,CORINTO,Extinguido,202,7,2025-12-09 16:13,2025-12-10 10:30,2025-12-10 11:32,"0,01",-35.41166687011719,-71.9013900756836,Empresa,Desechos,,Pencahue,Talca,Maule,9,07 Maule,2025-12-09 16:13:00,martes,17
792920571,MUNDO NUEVO,Extinguido,195,8,2025-12-11 19:25,2025-12-11 21:30,2025-12-12 02:25,"0,12",-37.39055633544922,-73.19222259521484,Empresa,,,Curanilahue,Arauco,Biobío,11,08 Biobío,2025-12-11 19:25:00,jueves,20
792921853,EL DESCABEZADO 2,Extinguido,196,8,2025-12-11 11:34,2025-12-11 12:17,2025-12-11 14:50,"0,26",-37.52694320678711,-73.33833312988281,Empresa,,,Curanilahue,Arauco,Biobío,11,08 Biobío,2025-12-11 11:34:00,jueves,12
792922344,EL DESCABEZADO 2,Extinguido,197,8,2025-12-10 23:57,2025-12-11 00:47,2025-12-11 01:45,"0,02",-37.51194381713867,-73.34416961669922,Empresa,,,Curanilahue,Arauco,Biobío,11,08 Biobío,2025-12-10 23:57:00,miércoles,0
787298512,MAQUEUTO,Extinguido,95,8,2025-11-20 10:02,2025-11-20 11:38,2025-11-20 14:40,"0,20",-36.959442138671875,-72.88861083984375,CONAF,Arbolado natural,,Hualqui,Concepción,Biobío,11,08 Biobío,2025-11-20 10:02:00,jueves,11
792640910,CRUZ DE PIEDRA,Extinguido,168,8,2025-12-11 12:37,2025-12-11 15:55,2025-12-11 19:20,"0,66",-37.224998474121094,-72.0344467163086,CONAF,Matorral,,Quilleco,Biobio,Biobío,11,08 Biobío,2025-12-11 12:37:00,jueves,13
794411809,SAN BERNARDO,Extinguido,131,16,2025-12-17 15:16,2025-12-17 19:22,2025-12-17 21:59,"5,50",-36.60944366455078,-72.06583404541016,CONAF,Pastizal,,Chillán,Diguillín,Ñuble,10,16 Ñuble,2025-12-17 15:16:00,miércoles,16
793164053,LOS ARENALES,Extinguido,231,13,2025-12-13 12:16,2025-12-13 13:21,2025-12-13 13:25,"0,60",-33.8930549621582,-70.87333679199219,CONAF,Pastizal,,Paine,Maipo,Metropolitana,7,13 Metropolitana,2025-12-13 12:16:00,sábado,13
794842017,CANTERAS FORESTAL-EL DURAZNO,Extinguido,225,8,2025-12-16 21:28,2025-12-16 23:27,2025-12-17 00:35,"0,13",-37.42194366455078,-71.9638900756836,Empresa,,,Quilleco,Biobio,Biobío,11,08 Biobío,2025-12-16 21:28:00,martes,22
792996054,173-CANTERAS FORESTAL,Extinguido,204,8,2025-12-12 17:51,2025-12-12 18:27,2025-12-12 21:05,"0,02",-37.41694259643555,-72.0513916015625,Empresa,,,Quilleco,Biobio,Biobío,11,08 Biobío,2025-12-12 17:51:00,viernes,18
786251130,LA CANTERA,Extinguido,98,13,2025-11-15 22:14,2025-11-16 00:21,2025-11-16 01:19,"0,71",-33.662498474121094,-70.94999694824219,CONAF,Pastizal,,El Monte,Talagante,Metropolitana,7,13 Metropolitana,2025-11-15 22:14:00,sábado,23
793262583,LOS COPIHUES,Extinguido,206,9,2025-12-12 19:14,2025-12-12 19:44,2025-12-13 15:00,"0,03",-38.17916488647461,-72.0919418334961,Empresa,,,Ercilla,Malleco,La Araucanía,12,09 La Araucanía,2025-12-12 19:14:00,viernes,20
793148679,PARCELAS SAN ANDRES,Extinguido,203,9,2025-12-12 15:38,2025-12-12 19:00,2025-12-15 17:52,"0,33",-38.03555679321289,-72.04777526855469,Empresa,,,Collipulli,Malleco,La Araucanía,12,09 La Araucanía,2025-12-12 15:38:00,viernes,16
792961356,SANTA EMA,Extinguido,201,9,2025-12-10 22:57,2025-12-11 10:30,2025-12-13 13:00,"0,01",-37.92972183227539,-72.2044448852539,Empresa,,,Collipulli,Malleco,La Araucanía,12,09 La Araucanía,2025-12-10 22:57:00,miércoles,23
792736616,SAN SEBASTIAN Y OTROS,Extinguido,231,9,2025-12-08 06:43,2025-12-08 09:18,2025-12-11 18:52,"3,28",-38.15055465698242,-73.02833557128906,CONAF,Matorral,,Lumaco,Malleco,La Araucanía,12,09 La Araucanía,2025-12-08 06:43:00,lunes,7
792487577,FORTIN ñIELOL 2,Extinguido,225,9,2025-12-10 19:48,2025-12-11 16:50,2025-12-13 16:14,"1,88",-38.46305465698242,-72.679443359375,CONAF,Pastizal,,Galvarino,Cautín,La Araucanía,12,09 La Araucanía,2025-12-10 19:48:00,miércoles,20
794396084,QUECHUCAHUIN,Extinguido,243,9,2025-12-17 14:58,2025-12-17 17:12,2025-12-17 17:15,"0,10",-38.89073944091797,-73.25231170654297,CONAF,Matorral,,Saavedra,Cautín,La Araucanía,12,09 La Araucanía,2025-12-17 14:58:00,miércoles,15
794091844,CONUCO XVI,Extinguido,127,16,2025-12-16 18:49,2025-12-17 13:39,2025-12-18 16:40,"10,79",-36.65416717529297,-72.70777893066406,CONAF,Pastizal,,Ránquil,Itata,Ñuble,10,16 Ñuble,2025-12-16 18:49:00,martes,19
793199974,EL SAUCE,Extinguido,232,13,2025-12-13 14:45,2025-12-13 16:27,2025-12-13 18:12,"1,00",-33.87358474731445,-71.38886260986328,CONAF,Pastizal,,San Pedro,Melipilla,Metropolitana,7,13 Metropolitana,2025-12-13 14:45:00,sábado,15
794914620,PLANTACION NORTE,Extinguido,233,8,2025-12-18 22:36,2025-12-18 23:30,2025-12-19 00:45,"0,09",-36.63372039794922,-72.94544219970703,Empresa,,,Tomé,Concepción,Biobío,11,08 Biobío,2025-12-18 22:36:00,jueves,23
793232448,DICHOCO BIOBIO,Extinguido,205,8,2025-12-13 15:26,2025-12-13 15:42,2025-12-13 16:12,"0,01",-36.70805740356445,-72.9719467163086,Empresa,,,Penco,Concepción,Biobío,11,08 Biobío,2025-12-13 15:26:00,sábado,16
791422436,LOS MIGUELES,Extinguido,105,6,2025-12-06 17:00,2025-12-06 18:01,2025-12-06 18:20,"0,01",-34.39628982543945,-70.83370971679688,CONAF,Pastizal,,Rengo,Cachapoal,O'Higgins,8,06 O'Higgins,2025-12-06 17:00:00,sábado,18
789061468,CALLE LA FERIA,Extinguido,116,5,2025-11-27 14:25,2025-11-27 15:25,2025-11-27 15:25,"0,05",-32.79305648803711,-71.19222259521484,CONAF,Pastizal,,Calera,Quillota,Valparaíso,6,05 Valparaíso,2025-11-27 14:25:00,jueves,15
794776114,COLICO BAJO,Extinguido,210,8,2025-12-18 14:36,2025-12-18 15:58,2025-12-18 15:58,"0,03",-37.282222747802734,-72.77694702148438,CONAF,Pastizal,,Santa Juana,Concepción,Biobío,11,08 Biobío,2025-12-18 14:36:00,jueves,15
794063793,PARQUE  TUMBES,Extinguido,197,8,2025-12-16 17:00,2025-12-16 18:35,2025-12-16 18:35,"0,05",-36.71638870239258,-73.15027618408203,CONAF,Matorral,,Talcahuano,Concepción,Biobío,11,08 Biobío,2025-12-16 17:00:00,martes,18
790617411,PEAJE SUR,Extinguido,98,16,2025-12-03 18:30,2025-12-13 17:22,2025-12-18 16:24,"3,80",-36.625,-72.1530532836914,CONAF,,,Chillán Viejo,Diguillín,Ñuble,10,16 Ñuble,2025-12-03 18:30:00,miércoles,19
793230586,SANTA RITA,Extinguido,234,13,2025-12-13 16:40,2025-12-13 17:36,2025-12-13 17:38,"0,01",-33.64697265625,-70.53411102294922,CONAF,Pastizal,,Puente Alto,Cordillera,Metropolitana,7,13 Metropolitana,2025-12-13 16:40:00,sábado,17
793235273,PANAMERICANA NORTE,Extinguido,233,13,2025-12-13 17:04,2025-12-13 17:37,2025-12-13 17:45,"0,02",-33.36777877807617,-70.69916534423828,CONAF,Pastizal,,Quilicura,Santiago,Metropolitana,7,13 Metropolitana,2025-12-13 17:04:00,sábado,18
793199178,ESCUELA VIEJA,Extinguido,163,5,2025-12-13 14:25,2025-12-13 16:40,2025-12-13 16:56,"0,02",-32.82704162597656,-71.0712890625,CONAF,Pastizal,,Hijuelas,Quillota,Valparaíso,6,05 Valparaíso,2025-12-13 14:25:00,sábado,15
793228173,LA REINA,Extinguido,206,7,2025-12-13 16:33,2025-12-13 17:17,2025-12-13 17:34,"0,20",-36.19725036621094,-71.80889129638672,CONAF,Pastizal,,Parral,Linares,Maule,9,07 Maule,2025-12-13 16:33:00,sábado,17
793213229,CALLEJON LAGUNILLAS,Extinguido,178,8,2025-12-13 15:36,2025-12-13 17:03,2025-12-13 18:16,"0,26",-36.85527801513672,-73.12972259521484,CONAF,Matorral,,San Pedro de la Paz,Concepción,Biobío,11,08 Biobío,2025-12-13 15:36:00,sábado,16
794132391,EL BOCO 7,Extinguido,182,5,2025-12-16 19:59,2025-12-16 21:04,2025-12-16 21:04,"0,02",-32.891666412353516,-71.27413940429688,CONAF,Basural,,Quillota,Quillota,Valparaíso,6,05 Valparaíso,2025-12-16 19:59:00,martes,20
794504141,BARROS NEGROS,Extinguido,231,7,2025-12-17 19:28,2025-12-17 22:58,2025-12-18 12:51,"5,00",-35.6105842590332,-71.74637603759766,CONAF,Pastizal,,Villa Alegre,Linares,Maule,9,07 Maule,2025-12-17 19:28:00,miércoles,20
794523110,SAN FRANCISCO,Extinguido,232,7,2025-12-17 19:55,2025-12-17 23:40,2025-12-18 11:53,"16,00",-36.00716781616211,-72.05760955810547,CONAF,Pastizal,,Parral,Linares,Maule,9,07 Maule,2025-12-17 19:55:00,miércoles,20
794035322,VILUCO 2,Extinguido,224,7,2025-12-16 15:53,2025-12-16 18:19,2025-12-16 19:21,"5,00",-34.89652633666992,-71.1691665649414,CONAF,Pastizal,,Teno,Curicó,Maule,9,07 Maule,2025-12-16 15:53:00,martes,16
793182097,CAMPITO CALIFORNIA,Extinguido,125,6,2025-12-13 13:41,2025-12-13 16:10,2025-12-14 00:37,"1,60",-34.21144485473633,-70.91422271728516,CONAF,Pastizal,,Doñihue,Cachapoal,O'Higgins,8,06 O'Higgins,2025-12-13 13:41:00,sábado,14
793249092,LO VALDIVIA,Extinguido,126,6,2025-12-13 17:56,2025-12-13 19:48,2025-12-13 20:10,"1,20",-34.70436096191406,-71.99891662597656,CONAF,Pastizal,,Paredones,Cardenal Caro,O'Higgins,8,06 O'Higgins,2025-12-13 17:56:00,sábado,18
794101510,EL ENCANTO,Extinguido,237,9,2025-12-16 18:01,2025-12-17 09:26,2025-12-17 21:13,"1,00",-37.73527908325195,-72.60722351074219,CONAF,Pastizal,,Renaico,Malleco,La Araucanía,12,09 La Araucanía,2025-12-16 18:01:00,martes,19
794437431,QUETRE,Extinguido,244,9,2025-12-17 16:40,2025-12-17 18:11,2025-12-17 18:45,"1,00",-38.35166549682617,-72.79777526855469,CONAF,Matorral,,Galvarino,Cautín,La Araucanía,12,09 La Araucanía,2025-12-17 16:40:00,miércoles,17
794110042,PARQUE EOLICO,Extinguido,239,9,2025-12-16 19:03,2025-12-16 20:57,2025-12-17 06:35,"0,10",-38.030277252197266,-72.23332977294922,CONAF,Pastizal,,Collipulli,Malleco,La Araucanía,12,09 La Araucanía,2025-12-16 19:03:00,martes,20
793254764,BOSQUE CONTRALORÍA,Extinguido,164,5,2025-12-13 18:24,2025-12-13 19:04,2025-12-13 19:20,"0,02",-33.56924819946289,-71.62374877929688,CONAF,Pastizal,,San Antonio,San Antonio,Valparaíso,6,05 Valparaíso,2025-12-13 18:24:00,sábado,19
794053475,SAN CARLOS PUREN,Extinguido,196,8,2025-12-16 16:33,2025-12-16 18:42,2025-12-17 17:02,"0,67",-37.603057861328125,-72.26667022705078,CONAF,Matorral,,Los Angeles,Biobio,Biobío,11,08 Biobío,2025-12-16 16:33:00,martes,17
794436942,"ALBA,EL",Extinguido,218,9,2025-12-16 19:37,2025-12-17 00:50,2025-12-17 14:20,"1,00",-38.14777755737305,-72.53194427490234,Empresa,,,Traiguén,Malleco,La Araucanía,12,09 La Araucanía,2025-12-16 19:37:00,martes,20
788969231,CAMPOMAR 2,Extinguido,114,5,2025-11-27 07:19,2025-11-27 10:34,2025-11-28 12:10,"0,41",-32.8488883972168,-71.4941635131836,CONAF,Plantación pino,,Quintero,Valparaíso,Valparaíso,6,05 Valparaíso,2025-11-27 07:19:00,jueves,8
794952700,QUESQUECHAN 2,Extinguido,249,9,2025-12-19 03:51,2025-12-19 04:17,2025-12-19 04:36,"0,40",-39.27861022949219,-72.55916595458984,CONAF,Matorral,,Loncoche,Cautín,La Araucanía,12,09 La Araucanía,2025-12-19 03:51:00,viernes,4
793257307,SANTA HERMINIA,Extinguido,165,5,2025-12-13 18:06,2025-12-13 19:50,2025-12-13 20:21,"0,58",-32.77426528930664,-71.18026733398438,CONAF,Pastizal,,Calera,Quillota,Valparaíso,6,05 Valparaíso,2025-12-13 18:06:00,sábado,19
793197540,MAQUEHUE PARAGUAY,Extinguido,177,8,2025-12-13 14:39,2025-12-13 15:14,2025-12-13 15:53,"0,02",-37.2227783203125,-72.27471923828125,CONAF,Pastizal,,Los Angeles,Biobio,Biobío,11,08 Biobío,2025-12-13 14:39:00,sábado,15
793111861,CULENAR VIEJO,Extinguido,204,7,2025-12-13 07:48,2025-12-13 10:34,2025-12-13 13:44,"6,00",-35.45777893066406,-71.70027923583984,CONAF,Pastizal,,Maule,Talca,Maule,9,07 Maule,2025-12-13 07:48:00,sábado,8
793635344,CALLEJON SAN AGUSTIN,Extinguido,213,7,2025-12-15 11:45,2025-12-15 12:19,2025-12-15 13:49,"0,20",-35.690948486328125,-71.52486419677734,CONAF,Desechos,,Yerbas Buenas,Linares,Maule,9,07 Maule,2025-12-15 11:45:00,lunes,12
793212671,CONDOMINIO ALTO SAN FRANCISCO,Extinguido,162,5,2025-12-13 15:41,2025-12-13 16:15,2025-12-13 16:23,"0,38",-32.45663833618164,-71.2658920288086,CONAF,Pastizal,,La Ligua,Petorca,Valparaíso,6,05 Valparaíso,2025-12-13 15:41:00,sábado,16
793176511,DICHOCO,Extinguido,175,8,2025-12-13 13:21,2025-12-13 14:35,2025-12-13 15:04,"0,15",-36.70777893066406,-72.97305297851562,CONAF,Matorral,,Penco,Concepción,Biobío,11,08 Biobío,2025-12-13 13:21:00,sábado,14
793230866,EL SAUCE,Extinguido,207,7,2025-12-13 16:46,2025-12-13 18:39,2025-12-13 19:12,"0,17",-35.100276947021484,-71.66278076171875,CONAF,Pastizal,,Sagrada Familia,Curicó,Maule,9,07 Maule,2025-12-13 16:46:00,sábado,17
793195916,CHILE ALGAS,Extinguido,176,8,2025-12-13 14:33,2025-12-13 15:35,2025-12-13 16:19,"0,11",-36.731109619140625,-72.98027801513672,CONAF,Matorral,,Penco,Concepción,Biobío,11,08 Biobío,2025-12-13 14:33:00,sábado,15
794125869,NILPE 2,Extinguido,241,9,2025-12-16 19:56,2025-12-16 21:56,2025-12-17 06:34,"0,35",-38.485557556152344,-72.80694580078125,CONAF,Matorral,,Galvarino,Cautín,La Araucanía,12,09 La Araucanía,2025-12-16 19:56:00,martes,20
794082747,LA FLORIDA,Extinguido,226,7,2025-12-16 17:45,2025-12-16 19:23,2025-12-16 19:23,"0,10",-35.08388900756836,-71.12611389160156,CONAF,Pastizal,,Curicó,Curicó,Maule,9,07 Maule,2025-12-16 17:45:00,martes,18
794110070,EL ROTO CHILENO,Extinguido,246,13,2025-12-16 18:56,2025-12-16 21:39,2025-12-17 16:08,"6,00",-33.67741775512695,-70.83816528320312,CONAF,Pastizal,,Talagante,Talagante,Metropolitana,7,13 Metropolitana,2025-12-16 18:56:00,martes,19
793284297,LAGUNILLAS,Extinguido,179,8,2025-12-13 21:14,2025-12-13 22:40,2025-12-13 22:55,"0,50",-36.85444259643555,-73.12860870361328,CONAF,Arbolado natural,,San Pedro de la Paz,Concepción,Biobío,11,08 Biobío,2025-12-13 21:14:00,sábado,22
793724464,BATUCO,Extinguido,240,13,2025-12-15 16:57,2025-12-15 18:44,2025-12-15 19:05,"2,00",-33.29249954223633,-70.8808364868164,CONAF,Pastizal,,Lampa,Chacabuco,Metropolitana,7,13 Metropolitana,2025-12-15 16:57:00,lunes,17
791444539,PAILLAHUE,Extinguido,199,9,2025-12-06 18:36,2025-12-06 19:15,2025-12-06 19:15,"0,20",-38.41222381591797,-72.7155532836914,CONAF,Pastizal,,Galvarino,Cautín,La Araucanía,12,09 La Araucanía,2025-12-06 18:36:00,sábado,19
792707478,LOLENCO,Extinguido,229,9,2025-12-11 16:24,2025-12-12 12:12,2025-12-12 21:25,"3,80",-37.90970993041992,-72.56356048583984,CONAF,Pastizal,,Angol,Malleco,La Araucanía,12,09 La Araucanía,2025-12-11 16:24:00,jueves,17
791536187,CHANCO (P),Extinguido,200,9,2025-12-07 06:12,2025-12-07 11:58,2025-12-08 06:36,"1,00",-38.274166107177734,-72.9366683959961,CONAF,Plantación eucaliptus,,Lumaco,Malleco,La Araucanía,12,09 La Araucanía,2025-12-07 06:12:00,domingo,7
794947770,LOS YUYOS,Extinguido,248,9,2025-12-19 02:31,2025-12-19 04:14,2025-12-19 04:42,"1,00",-37.89611053466797,-72.66638946533203,CONAF,Matorral,,Los Sauces,Malleco,La Araucanía,12,09 La Araucanía,2025-12-19 02:31:00,viernes,3
792046317,CERRO CASTILLO,Extinguido,214,9,2025-12-09 09:54,2025-12-10 16:23,2025-12-13 18:21,"0,01",-38.74277877807617,-71.53472137451172,CONAF,Arbolado natural,China Muerta,Melipeuco,Cautín,La Araucanía,12,09 La Araucanía,2025-12-09 09:54:00,martes,10
792044886,SAN LORENZO,Extinguido,212,9,2025-12-09 10:16,2025-12-10 15:42,2025-12-11 14:21,"0,01",-38.80861282348633,-71.75694274902344,CONAF,Arbolado natural,,Melipeuco,Cautín,La Araucanía,12,09 La Araucanía,2025-12-09 10:16:00,martes,11
790822947,PARCELA 13 CATRIMALAL,Extinguido,188,9,2025-12-03 12:28,2025-12-03 12:52,2025-12-08 06:32,"0,08",-37.780277252197266,-72.65361022949219,CONAF,Matorral,,Angol,Malleco,La Araucanía,12,09 La Araucanía,2025-12-03 12:28:00,miércoles,13
790050451,NILPE,Extinguido,184,9,2025-12-01 18:12,2025-12-01 19:48,2025-12-01 19:52,"0,20",-38.48027801513672,-72.80889129638672,CONAF,Matorral,,Galvarino,Cautín,La Araucanía,12,09 La Araucanía,2025-12-01 18:12:00,lunes,19
792959741,CALLE LAS HERAS,Extinguido,232,9,2025-12-12 15:07,2025-12-12 15:44,2025-12-12 15:44,"0,10",-38.227779388427734,-72.3227767944336,CONAF,Pastizal,,Victoria,Malleco,La Araucanía,12,09 La Araucanía,2025-12-12 15:07:00,viernes,16
791911823,MONO PAINE,Extinguido,210,9,2025-12-08 18:36,2025-12-08 19:55,2025-12-09 08:45,"0,10",-38.78305435180664,-72.66777801513672,CONAF,Matorral,,Temuco,Cautín,La Araucanía,12,09 La Araucanía,2025-12-08 18:36:00,lunes,19
791788192,EL LINGUE BAJO 1,Extinguido,204,9,2025-12-08 10:07,2025-12-08 16:25,2025-12-09 21:18,"4,20",-38.125831604003906,-72.99722290039062,CONAF,Desechos,,Purén,Malleco,La Araucanía,12,09 La Araucanía,2025-12-08 10:07:00,lunes,11
793295293,SAN ANTONIO,Extinguido,208,7,2025-12-13 20:26,2025-12-16 19:12,2025-12-20 13:56,"70,00",-35.34769821166992,-72.42430114746094,CONAF,Desechos,,Constitución,Talca,Maule,9,07 Maule,2025-12-13 20:26:00,sábado,21
792373619,LAS TEJAS,Extinguido,164,8,2025-12-10 13:17,2025-12-10 14:46,2025-12-10 18:26,"1,20",-37.16444396972656,-72.36027526855469,CONAF,Matorral,,Cabrero,Biobio,Biobío,11,08 Biobío,2025-12-10 13:17:00,miércoles,14
793748989,EL ARROZAL 1,Extinguido,130,6,2025-12-15 18:05,2025-12-15 20:40,2025-12-16 12:00,"2,30",-34.09235382080078,-70.77680206298828,CONAF,Pastizal,,Graneros,Cachapoal,O'Higgins,8,06 O'Higgins,2025-12-15 18:05:00,lunes,19
792657572,SAN LUIS DE FORTIN,Extinguido,194,9,2025-12-10 15:45,2025-12-10 20:00,2025-12-13 15:15,"13,60",-37.935001373291016,-72.59638977050781,Empresa,,,Angol,Malleco,La Araucanía,12,09 La Araucanía,2025-12-10 15:45:00,miércoles,16
794022599,POZO DE ORO,Extinguido,223,7,2025-12-16 15:19,2025-12-16 17:14,2025-12-16 17:50,"0,80",-35.705970764160156,-71.8118896484375,CONAF,Pastizal,,San Javier,Linares,Maule,9,07 Maule,2025-12-16 15:19:00,martes,16
793416023,QUILIMARÍ,Extinguido,39,4,2025-12-14 13:15,2025-12-14 15:01,2025-12-14 15:52,"0,80",-32.1232795715332,-71.50641632080078,CONAF,Pastizal,,Los Vilos,Choapa,Coquimbo,5,04 Coquimbo,2025-12-14 13:15:00,domingo,14
794553415,PATAGUA ORILLA 1,Extinguido,137,6,2025-12-17 22:10,2025-12-18 00:40,2025-12-18 16:30,"1,80",-34.287498474121094,-71.35305786132812,CONAF,Pastizal,,Pichidegua,Cachapoal,O'Higgins,8,06 O'Higgins,2025-12-17 22:10:00,miércoles,23
794062454,CUÑAO,Extinguido,225,7,2025-12-16 16:55,2025-12-17 01:44,2025-12-17 12:12,"74,00",-35.9427490234375,-71.7455825805664,CONAF,Pastizal,,Retiro,Linares,Maule,9,07 Maule,2025-12-16 16:55:00,martes,17
794811908,ISLA GUACAMAYO,Controlado,21,14,2025-12-18 15:20,2025-12-19 14:31,,"4,40",-39.87335968017578,-73.2695541381836,CONAF,Matorral,,Valdivia,Valdivia,Los Ríos,13,14 Los Ríos,2025-12-18 15:20:00,jueves,16
794832535,SAN MANUEL 2,Extinguido,237,7,2025-12-18 17:17,2025-12-18 18:42,2025-12-18 18:55,"0,01",-35.25,-71.51361083984375,CONAF,Matorral,,San Rafael,Talca,Maule,9,07 Maule,2025-12-18 17:17:00,jueves,18
793458401,OL-COIHUECO Y OTROS BIOBIO,Extinguido,212,8,2025-12-14 16:47,2025-12-14 18:10,2025-12-15 01:41,"0,12",-36.75166702270508,-72.98916625976562,Empresa,,,Penco,Concepción,Biobío,11,08 Biobío,2025-12-14 16:47:00,domingo,17
787601850,CODIHUE,Extinguido,137,9,2025-11-21 14:35,2025-11-21 21:07,2025-11-24 03:40,"2,20",-38.65861129760742,-73.04944610595703,CONAF,Matorral,,Nueva Imperial,Cautín,La Araucanía,12,09 La Araucanía,2025-11-21 14:35:00,viernes,15
793477400,EL MEMBRILLO,Extinguido,166,5,2025-12-14 18:16,2025-12-14 19:24,2025-12-14 19:39,"0,20",-33.4913330078125,-71.6090316772461,CONAF,Pastizal,,El Tabo,San Antonio,Valparaíso,6,05 Valparaíso,2025-12-14 18:16:00,domingo,19
792944449,PIEDRA MESA,Extinguido,199,8,2025-12-09 17:22,2025-12-09 19:45,2025-12-20 17:00,"5,16",-37.25972366333008,-72.1147232055664,Empresa,,,Los Angeles,Biobio,Biobío,11,08 Biobío,2025-12-09 17:22:00,martes,18
794441847,SANTA ISABEL DE RARINCO,Extinguido,219,8,2025-12-16 08:49,2025-12-16 10:00,2025-12-17 09:35,"0,02",-37.41472244262695,-72.26361083984375,Empresa,,,Los Angeles,Biobio,Biobío,11,08 Biobío,2025-12-16 08:49:00,martes,9
793243649,SAN IGNACIO,Extinguido,233,9,2025-12-13 17:44,2025-12-13 18:39,2025-12-13 18:40,"0,02",-38.05611038208008,-72.77278137207031,CONAF,Pastizal,,Los Sauces,Malleco,La Araucanía,12,09 La Araucanía,2025-12-13 17:44:00,sábado,18
793474014,TOCONEY,Extinguido,211,7,2025-12-14 17:47,2025-12-14 20:31,2025-12-14 21:16,"0,70",-35.415000915527344,-72.06111145019531,CONAF,Matorral,,Pencahue,Talca,Maule,9,07 Maule,2025-12-14 17:47:00,domingo,18
793489350,FUNDO SANTA JULIA,Extinguido,167,5,2025-12-14 19:34,2025-12-14 20:47,2025-12-14 21:20,"0,38",-32.98230743408203,-71.51791381835938,CONAF,Pastizal,,Viña del Mar,Valparaíso,Valparaíso,6,05 Valparaíso,2025-12-14 19:34:00,domingo,20
793498063,VILUCO,Extinguido,212,7,2025-12-14 20:04,2025-12-14 22:41,2025-12-14 22:45,"8,00",-34.87555694580078,-71.15666961669922,CONAF,Pastizal,,Teno,Curicó,Maule,9,07 Maule,2025-12-14 20:04:00,domingo,21
793432878,CORRALON SAN PEDRO,Extinguido,182,8,2025-12-14 14:53,2025-12-14 18:37,2025-12-14 18:37,"0,80",-36.831668853759766,-73.13194274902344,CONAF,Matorral,,San Pedro de la Paz,Concepción,Biobío,11,08 Biobío,2025-12-14 14:53:00,domingo,15
793512105,SANTA CRUZ,Extinguido,234,9,2025-12-14 21:44,2025-12-14 22:57,2025-12-14 23:17,"0,01",-37.92777633666992,-72.4655532836914,CONAF,Matorral,,Collipulli,Malleco,La Araucanía,12,09 La Araucanía,2025-12-14 21:44:00,domingo,22
793326155,PUANGUE 3,Extinguido,235,13,2025-12-14 02:26,2025-12-14 03:35,2025-12-14 03:50,"0,03",-33.65416717529297,-71.34610748291016,CONAF,Pastizal,,Melipilla,Melipilla,Metropolitana,7,13 Metropolitana,2025-12-14 02:26:00,domingo,3
793487191,5011 - ZARAGOSA 1,Extinguido,208,9,2025-12-14 16:05,2025-12-14 17:37,2025-12-14 18:36,"0,02",-38.453983306884766,-73.01847076416016,Empresa,,,Lumaco,Malleco,La Araucanía,12,09 La Araucanía,2025-12-14 16:05:00,domingo,17
791116957,MOLLULCO,Extinguido,193,9,2025-12-05 14:13,2025-12-05 16:18,2025-12-05 16:18,"0,30",-38.74222183227539,-72.75111389160156,CONAF,Matorral,,Temuco,Cautín,La Araucanía,12,09 La Araucanía,2025-12-05 14:13:00,viernes,15
786395115,RIBERA ÑUBLE ORIENTE II,Extinguido,58,16,2025-11-16 18:22,2025-11-16 19:10,2025-11-16 21:20,"0,43",-36.53972244262695,-72.0808334350586,CONAF,Pastizal,,San Carlos,Punilla,Ñuble,10,16 Ñuble,2025-11-16 18:22:00,domingo,19
786371696,EL ROSAL II,Extinguido,180,8,2025-11-16 16:19,2025-11-17 04:40,2025-11-30 11:20,"20,93",-37.5993537902832,-73.57806396484375,Empresa,,,Lebu,Arauco,Biobío,11,08 Biobío,2025-11-16 16:19:00,domingo,17
778023200,3- LA PATAGUILLA PC.43 B (PARTICULAR)(PARTICULAR),Extinguido,3,7,2025-09-09 16:55,2025-09-09 18:30,2025-09-09 18:43,"0,40",-35.29621505737305,-71.17709350585938,CONAF,Matorral,,Río Claro,Talca,Maule,9,07 Maule,2025-09-09 16:55:00,martes,17
792029839,191- EL MEMBRILLO (PARTICULAR),Extinguido,191,7,2025-12-02 20:44,2025-12-02 21:40,2025-12-04 01:35,"0,90",-35.30022048950195,-72.32798767089844,CONAF,Matorral,,Constitución,Talca,Maule,9,07 Maule,2025-12-02 20:44:00,martes,21
790860150,MONTERILLA,Extinguido,167,7,2025-12-04 15:38,2025-12-04 17:49,2025-12-04 18:12,"0,50",-34.842498779296875,-71.10355377197266,CONAF,Pastizal,,Teno,Curicó,Maule,9,07 Maule,2025-12-04 15:38:00,jueves,16
793423191,CRUCE CATILLO,Extinguido,209,7,2025-12-14 14:03,2025-12-14 16:19,2025-12-14 16:51,"3,90",-36.159027099609375,-71.81805419921875,CONAF,Pastizal,,Parral,Linares,Maule,9,07 Maule,2025-12-14 14:03:00,domingo,15
792166884,CHEÑUE,Extinguido,64,10,2025-12-09 15:28,2025-12-10 15:00,2025-12-10 15:37,"0,30",-42.0041389465332,-72.71636199951172,CONAF,Matorral,,Hualaihué,Palena,Los Lagos,14,10 Los Lagos,2025-12-09 15:28:00,martes,16
792848150,PACHAGUA,Extinguido,113,16,2025-12-12 07:34,2025-12-12 08:45,2025-12-12 11:40,"0,01",-36.43333435058594,-72.56610870361328,CONAF,Otros,,Treguaco,Itata,Ñuble,10,16 Ñuble,2025-12-12 07:34:00,viernes,8
793155108,205- STA AMELIA ORIENTE (PARTICULAR) (PARTICULAR),Extinguido,205,7,2025-12-12 10:54,2025-12-12 11:25,2025-12-12 12:58,"0,01",-35.398887634277344,-72.429443359375,CONAF,Matorral,,Constitución,Talca,Maule,9,07 Maule,2025-12-12 10:54:00,viernes,11
792672789,HULLON,Extinguido,17,14,2025-12-11 13:58,2025-12-11 15:58,2025-12-11 16:16,"0,10",-39.68047332763672,-72.94027709960938,CONAF,Pastizal,,Máfil,Valdivia,Los Ríos,13,14 Los Ríos,2025-12-11 13:58:00,jueves,14
793931825,PELLINES I PART.,Extinguido,220,7,2025-12-09 20:17,2025-12-09 21:25,2025-12-15 08:50,"0,12",-35.49277877807617,-72.5088882446289,CONAF,Plantación eucaliptus,,Constitución,Talca,Maule,9,07 Maule,2025-12-09 20:17:00,martes,21
786363977,GUALLALI,Extinguido,86,8,2025-11-16 15:44,2025-11-25 16:26,2025-12-01 10:36,"144,00",-38.070556640625,-71.16222381591797,CONAF,Otras plantaciones,,Alto Biobío,Biobio,Biobío,11,08 Biobío,2025-11-16 15:44:00,domingo,16
793633672,EL LEONCILLO 3,Extinguido,168,5,2025-12-15 11:30,2025-12-15 12:31,2025-12-15 12:38,"0,01",-33.11456298828125,-71.71790313720703,CONAF,Desechos,,Valparaíso,Valparaíso,Valparaíso,6,05 Valparaíso,2025-12-15 11:30:00,lunes,12
792099386,ORILLA DE MAULE 3,Extinguido,193,7,2025-12-09 13:43,2025-12-09 15:28,2025-12-09 17:30,"2,10",-35.57472229003906,-71.63444519042969,CONAF,Pastizal,,San Javier,Linares,Maule,9,07 Maule,2025-12-09 13:43:00,martes,14
786193150,PICHIBUDI,Extinguido,79,7,2025-11-15 15:10,2025-11-15 17:48,2025-11-15 18:32,"0,50",-34.8757209777832,-72.15210723876953,CONAF,Plantación eucaliptus,,Vichuquén,Curicó,Maule,9,07 Maule,2025-11-15 15:10:00,sábado,16
794032191,COLONIA SANTA FE,Extinguido,195,8,2025-12-16 15:45,2025-12-19 18:07,2025-12-27 16:05,"104,00",-37.502498626708984,-72.59416961669922,CONAF,Arbolado natural,,Los Angeles,Biobio,Biobío,11,08 Biobío,2025-12-16 15:45:00,martes,16
793652408,LAS CRUCES,Extinguido,170,5,2025-12-15 12:40,2025-12-15 13:12,2025-12-15 13:28,"0,01",-33.49611282348633,-71.6133041381836,CONAF,Pastizal,,El Tabo,San Antonio,Valparaíso,6,05 Valparaíso,2025-12-15 12:40:00,lunes,13
794829799,CRUCE EL PEÑON,Extinguido,40,4,2025-12-18 16:48,2025-12-18 17:26,2025-12-18 18:08,"0,12",-30.11341667175293,-71.23452758789062,CONAF,Pastizal,,Coquimbo,Elqui,Coquimbo,5,04 Coquimbo,2025-12-18 16:48:00,jueves,17
793643861,CASAS VIEJA LONGOTOMA,Extinguido,169,5,2025-12-15 12:09,2025-12-15 13:49,2025-12-15 13:55,"1,30",-32.33833312988281,-71.31758117675781,CONAF,Pastizal,,La Ligua,Petorca,Valparaíso,6,05 Valparaíso,2025-12-15 12:09:00,lunes,13
793642737,EL BOCO 5,Extinguido,171,5,2025-12-15 12:01,2025-12-15 13:51,2025-12-15 15:35,"0,30",-32.89263916015625,-71.27497100830078,CONAF,Pastizal,,Quillota,Quillota,Valparaíso,6,05 Valparaíso,2025-12-15 12:01:00,lunes,13
787653688,CUNCO CHICO,Extinguido,139,9,2025-11-21 17:32,2025-11-21 19:45,2025-11-21 19:45,"0,01",-38.849971771240234,-72.57991790771484,CONAF,Matorral,,Temuco,Cautín,La Araucanía,12,09 La Araucanía,2025-11-21 17:32:00,viernes,18
790003109,ABRANTES,Extinguido,174,13,2025-12-01 15:33,2025-12-01 17:16,2025-12-01 17:57,"1,50",-33.864166259765625,-70.84333038330078,CONAF,Pastizal,,Paine,Maipo,Metropolitana,7,13 Metropolitana,2025-12-01 15:33:00,lunes,16
787723748,MOLCO LAS LOMAS,Extinguido,140,9,2025-11-21 23:38,2025-11-22 01:15,2025-11-22 07:16,"0,01",-38.80305480957031,-72.77083587646484,CONAF,Matorral,,Padre Las Casas,Cautín,La Araucanía,12,09 La Araucanía,2025-11-21 23:38:00,viernes,0
786539779,TRINIDAD,Extinguido,57,6,2025-11-17 13:20,2025-11-17 16:02,2025-11-17 17:33,"7,56",-34.36634063720703,-71.58855438232422,CONAF,Pastizal,,Marchigue,Cardenal Caro,O'Higgins,8,06 O'Higgins,2025-11-17 13:20:00,lunes,14
789998021,EL BARRANCON,Extinguido,173,13,2025-12-01 15:13,2025-12-01 17:45,2025-12-01 17:52,"2,50",-33.625694274902344,-70.73252868652344,CONAF,Pastizal,,San Bernardo,Maipo,Metropolitana,7,13 Metropolitana,2025-12-01 15:13:00,lunes,16
793657316,OL-COIHUECO Y OTROS BIOBIO,Extinguido,214,8,2025-12-15 13:08,2025-12-15 13:55,2025-12-15 16:55,"0,12",-36.747501373291016,-72.98444366455078,Empresa,,,Penco,Concepción,Biobío,11,08 Biobío,2025-12-15 13:08:00,lunes,14
788140822,LOLORRUCA,Extinguido,152,9,2025-11-23 16:07,2025-11-23 21:27,2025-11-24 03:42,"3,50",-39.37586212158203,-72.75148010253906,CONAF,Matorral,,Loncoche,Cautín,La Araucanía,12,09 La Araucanía,2025-11-23 16:07:00,domingo,17
793675318,PARCELAS DE PATAGUA CERRO,Extinguido,128,6,2025-12-15 14:03,2025-12-15 15:21,2025-12-15 15:44,"0,20",-34.28511047363281,-71.36802673339844,CONAF,Pastizal,,Pichidegua,Cachapoal,O'Higgins,8,06 O'Higgins,2025-12-15 14:03:00,lunes,15
777106919,CERRO VENTANA,Extinguido,1,6,2025-07-12 13:35,,2025-07-21 10:38,"8,98",-34.198917388916016,-71.07969665527344,CONAF,Matorral,,Las Cabras,Cachapoal,O'Higgins,8,06 O'Higgins,2025-07-12 13:35:00,sábado,14
793718957,LOMAS LAS TORTILLAS 2,Extinguido,219,7,2025-12-15 16:37,2025-12-15 20:47,2025-12-16 11:38,"10,90",-35.619361877441406,-71.74702453613281,CONAF,Cultivo agrícola,,Villa Alegre,Linares,Maule,9,07 Maule,2025-12-15 16:37:00,lunes,17
789989435,LOS MAITENES 2,Extinguido,172,13,2025-12-01 14:42,2025-12-01 16:07,2025-12-01 16:55,"2,00",-33.67597198486328,-71.23149871826172,CONAF,Pastizal,,Melipilla,Melipilla,Metropolitana,7,13 Metropolitana,2025-12-01 14:42:00,lunes,15
794398575,CUCHA CUCHA,Extinguido,130,16,2025-12-17 14:53,2025-12-17 18:04,2025-12-18 17:26,"4,14",-36.59027862548828,-72.42888641357422,CONAF,Pastizal,,Portezuelo,Itata,Ñuble,10,16 Ñuble,2025-12-17 14:53:00,miércoles,15
794387488,LOS JAZMINES,Extinguido,135,6,2025-12-17 14:25,2025-12-17 15:31,2025-12-17 16:16,"0,10",-33.979393005371094,-70.70816802978516,CONAF,Pastizal,,Mostazal,Cachapoal,O'Higgins,8,06 O'Higgins,2025-12-17 14:25:00,miércoles,15
794169569,UVAS BLANCAS,Extinguido,128,16,2025-12-16 22:21,2025-12-17 01:28,2025-12-18 14:16,"4,60",-36.62638854980469,-72.52889251708984,CONAF,Pastizal,,Ránquil,Itata,Ñuble,10,16 Ñuble,2025-12-16 22:21:00,martes,23
786805143,CAMARON,Extinguido,67,8,2025-11-11 14:22,2025-11-11 14:50,2025-11-11 15:30,"0,03",-37.61916732788086,-73.65528106689453,Empresa,,,Lebu,Arauco,Biobío,11,08 Biobío,2025-11-11 14:22:00,martes,15
794724600,LOS MONOS,Extinguido,233,7,2025-12-18 12:00,2025-12-18 15:00,2025-12-18 16:08,"2,30",-35.18716812133789,-71.4205551147461,CONAF,Pastizal,,Molina,Curicó,Maule,9,07 Maule,2025-12-18 12:00:00,jueves,13
793680013,SAN MANUEL,Extinguido,216,7,2025-12-15 14:25,2025-12-15 19:39,2025-12-15 21:53,"6,70",-35.24972152709961,-71.51166534423828,CONAF,Pastizal,,San Rafael,Talca,Maule,9,07 Maule,2025-12-15 14:25:00,lunes,15
793649019,LANCHA DE QUERI,Extinguido,215,7,2025-12-15 12:30,2025-12-15 14:42,2025-12-15 16:50,"2,00",-35.60886001586914,-71.47010803222656,CONAF,Pastizal,,Yerbas Buenas,Linares,Maule,9,07 Maule,2025-12-15 12:30:00,lunes,13
794409762,CONVENTO VIEJO 2,Extinguido,136,6,2025-12-17 15:30,2025-12-17 16:50,2025-12-17 17:47,"0,05",-34.728248596191406,-71.10747528076172,CONAF,Matorral,,Chimbarongo,Colchagua,O'Higgins,8,06 O'Higgins,2025-12-17 15:30:00,miércoles,16
793757043,LA LECHERIA,Extinguido,242,13,2025-12-15 18:34,2025-12-15 19:45,2025-12-15 19:48,"1,60",-33.62441635131836,-70.61846923828125,CONAF,Pastizal,,Puente Alto,Cordillera,Metropolitana,7,13 Metropolitana,2025-12-15 18:34:00,lunes,19
786358510,CAMINO EL RODEO,Extinguido,102,13,2025-11-16 15:05,2025-11-16 16:34,2025-11-16 16:40,"1,90",-33.63141632080078,-70.5977783203125,CONAF,Pastizal,,Puente Alto,Cordillera,Metropolitana,7,13 Metropolitana,2025-11-16 15:05:00,domingo,16
786901571,CAMINO A LA SERENA KM14,Extinguido,122,9,2025-11-18 18:47,2025-11-18 19:46,2025-11-19 03:47,"0,30",-38.578548431396484,-72.71375274658203,CONAF,Pastizal,,Temuco,Cautín,La Araucanía,12,09 La Araucanía,2025-11-18 18:47:00,martes,19
792618875,PANGUECO,Extinguido,226,9,2025-12-11 11:11,2025-12-11 13:54,2025-12-11 14:12,"0,30",-38.04499816894531,-73.1322250366211,CONAF,Arbolado natural,,Purén,Malleco,La Araucanía,12,09 La Araucanía,2025-12-11 11:11:00,jueves,12
793700208,MAQUEHUA 2,Extinguido,218,7,2025-12-15 15:45,2025-12-15 17:20,2025-12-15 17:42,"0,10",-35.008331298828125,-71.24610900878906,CONAF,Matorral,,Curicó,Curicó,Maule,9,07 Maule,2025-12-15 15:45:00,lunes,16
793826276,LANALHUE,Extinguido,209,8,2025-12-07 20:36,2025-12-08 12:40,2025-12-08 14:00,"0,27",-37.9283332824707,-73.33999633789062,Empresa,,,Cañete,Arauco,Biobío,11,08 Biobío,2025-12-07 20:36:00,domingo,21
783812845,PAILACOYAN,Extinguido,76,9,2025-11-03 13:39,2025-11-03 16:03,2025-11-03 23:29,"0,50",-38.746944427490234,-73.17500305175781,CONAF,Desechos,,Carahue,Cautín,La Araucanía,12,09 La Araucanía,2025-11-03 13:39:00,lunes,14
791136823,BOLLECO,Extinguido,194,9,2025-12-05 15:29,2025-12-05 16:33,2025-12-05 16:33,"0,30",-38.63685989379883,-72.6929702758789,CONAF,Arbolado natural,,Temuco,Cautín,La Araucanía,12,09 La Araucanía,2025-12-05 15:29:00,viernes,16
793730855,ESPERANZA DE LEBU,Extinguido,215,8,2025-12-15 17:24,2025-12-15 18:18,2025-12-15 19:59,"0,06",-37.61833190917969,-73.64749908447266,Empresa,,,Lebu,Arauco,Biobío,11,08 Biobío,2025-12-15 17:24:00,lunes,18
791833535,EL LINGUE BAJO 2,Extinguido,205,9,2025-12-08 13:30,2025-12-08 19:18,2025-12-09 21:22,"0,29",-38.12004470825195,-72.99333953857422,CONAF,Plantación pino,,Purén,Malleco,La Araucanía,12,09 La Araucanía,2025-12-08 13:30:00,lunes,14
792108402,LINGUE BAJO 4,Extinguido,215,9,2025-12-09 14:07,2025-12-09 15:16,2025-12-09 15:34,"0,50",-38.093055725097656,-72.99250030517578,CONAF,Plantación pino,,Purén,Malleco,La Araucanía,12,09 La Araucanía,2025-12-09 14:07:00,martes,15
792380982,LIRCAY,Extinguido,221,9,2025-12-10 13:48,2025-12-10 14:50,2025-12-10 14:57,"0,50",-38.71889877319336,-72.66281127929688,CONAF,Matorral,,Temuco,Cautín,La Araucanía,12,09 La Araucanía,2025-12-10 13:48:00,miércoles,14
793761315,DICHOCO BIOBIO,Extinguido,213,8,2025-12-15 18:56,2025-12-15 20:05,2025-12-15 21:04,"0,14",-36.70277786254883,-72.97000122070312,Empresa,,,Penco,Concepción,Biobío,11,08 Biobío,2025-12-15 18:56:00,lunes,19
793627193,CERRO CHENA 2,Extinguido,237,13,2025-12-15 11:01,2025-12-15 12:29,2025-12-15 12:36,"0,05",-33.60527801513672,-70.71749877929688,CONAF,Pastizal,,San Bernardo,Maipo,Metropolitana,7,13 Metropolitana,2025-12-15 11:01:00,lunes,12
793401174,LOS FILTROS // BB,Extinguido,181,8,2025-12-14 11:34,2025-12-14 13:12,2025-12-14 13:12,"0,20",-37.61916732788086,-73.66083526611328,CONAF,Matorral,,Lebu,Arauco,Biobío,11,08 Biobío,2025-12-14 11:34:00,domingo,12
794764279,FINAL CALLE SAN DIEGO 3,Extinguido,189,5,2025-12-18 13:44,2025-12-18 16:17,2025-12-18 16:43,"0,95",-32.7799186706543,-71.21663665771484,CONAF,Pastizal,,Calera,Quillota,Valparaíso,6,05 Valparaíso,2025-12-18 13:44:00,jueves,14
794869677,EL TOCO,Extinguido,142,6,2025-12-18 19:10,2025-12-18 21:00,2025-12-18 21:15,"0,20",-34.34063720703125,-71.41178131103516,CONAF,Pastizal,,Pichidegua,Cachapoal,O'Higgins,8,06 O'Higgins,2025-12-18 19:10:00,jueves,20
793699391,CERRO LA OBRA,Extinguido,238,13,2025-12-15 15:39,2025-12-15 18:01,2025-12-15 19:12,"12,00",-33.709999084472656,-70.7911148071289,CONAF,Pastizal,,San Bernardo,Maipo,Metropolitana,7,13 Metropolitana,2025-12-15 15:39:00,lunes,16
793655934,FOLILCO,Extinguido,20,14,2025-12-15 12:55,2025-12-15 15:09,2025-12-15 15:14,"0,03",-40.44730758666992,-72.71994018554688,CONAF,Desechos,,Río Bueno,Ranco,Los Ríos,13,14 Los Ríos,2025-12-15 12:55:00,lunes,13
793800191,RINCONADA DE SAN JUAN,Extinguido,175,5,2025-12-15 20:45,2025-12-16 10:57,2025-12-17 15:58,"1,70",-33.67802810668945,-71.55924987792969,CONAF,Pastizal,,San Antonio,San Antonio,Valparaíso,6,05 Valparaíso,2025-12-15 20:45:00,lunes,21
782155544,CALLEUQUE,Extinguido,21,6,2025-10-24 10:43,2025-10-24 13:16,2025-10-24 13:30,"0,01",-34.424442291259766,-71.44361114501953,CONAF,Desechos,,Peralillo,Colchagua,O'Higgins,8,06 O'Higgins,2025-10-24 10:43:00,viernes,11
786778887,EL VINCULO 2,Extinguido,114,13,2025-11-18 11:46,2025-11-18 13:40,2025-11-18 14:17,"3,00",-33.83250045776367,-70.82527923583984,CONAF,Pastizal,,Paine,Maipo,Metropolitana,7,13 Metropolitana,2025-11-18 11:46:00,martes,12
787623966,SANTA LAURA YAHUILO,Extinguido,102,8,2025-11-21 15:55,2025-11-21 17:23,2025-11-21 20:05,"1,70",-37.184165954589844,-72.6036148071289,CONAF,Pastizal,,Yumbel,Biobio,Biobío,11,08 Biobío,2025-11-21 15:55:00,viernes,16
786861330,CHACAICO 3,Extinguido,119,9,2025-11-18 19:32,2025-11-18 20:42,2025-11-19 03:47,"0,30",-38.50027847290039,-72.89444732666016,CONAF,Plantación eucaliptus,,Cholchol,Cautín,La Araucanía,12,09 La Araucanía,2025-11-18 19:32:00,martes,20
793769448,CERRO LA OBRA 2,Extinguido,241,13,2025-12-15 19:21,2025-12-15 20:30,2025-12-15 20:49,"0,50",-33.70713806152344,-70.79003143310547,CONAF,Pastizal,,San Bernardo,Maipo,Metropolitana,7,13 Metropolitana,2025-12-15 19:21:00,lunes,20
793485936,MAREUCHO,Extinguido,184,8,2025-12-14 19:10,2025-12-14 20:40,2025-12-15 16:05,"0,75",-37.06111145019531,-72.95249938964844,CONAF,Pastizal,,Hualqui,Concepción,Biobío,11,08 Biobío,2025-12-14 19:10:00,domingo,20
786348623,BOLDOCHE,Extinguido,104,9,2025-11-16 14:14,2025-11-16 19:15,2025-11-17 13:07,"19,00",-38.62694549560547,-72.94527435302734,CONAF,Matorral,,Cholchol,Cautín,La Araucanía,12,09 La Araucanía,2025-11-16 14:14:00,domingo,15
793937874,BUCALEMITO,Extinguido,176,5,2025-12-16 10:54,2025-12-19 18:01,2025-12-28 15:28,"347,38",-33.89672088623047,-71.79069519042969,CONAF,Pastizal,,Santo Domingo,San Antonio,Valparaíso,6,05 Valparaíso,2025-12-16 10:54:00,martes,11
793986519,LA LAJUELA,Extinguido,131,6,2025-12-16 13:38,2025-12-16 18:30,2025-12-16 22:28,"3,00",-34.64491271972656,-71.39981079101562,CONAF,Pastizal,,Santa Cruz,Colchagua,O'Higgins,8,06 O'Higgins,2025-12-16 13:38:00,martes,14
794889610,CERRILLOS,Extinguido,238,7,2025-12-18 20:25,2025-12-18 21:46,2025-12-18 22:15,"0,70",-35.04999923706055,-71.30777740478516,CONAF,Pastizal,,Sagrada Familia,Curicó,Maule,9,07 Maule,2025-12-18 20:25:00,jueves,21
794391629,EL QUILLAY,Extinguido,129,16,2025-12-17 14:46,2025-12-19 19:16,2025-12-26 11:45,"217,76",-36.646942138671875,-72.19944763183594,CONAF,Pastizal,,Chillán Viejo,Diguillín,Ñuble,10,16 Ñuble,2025-12-17 14:46:00,miércoles,15
793951738,LA MONA,Extinguido,192,8,2025-12-16 11:52,2025-12-16 13:15,2025-12-16 13:34,"0,32",-37.33305740356445,-72.36528015136719,CONAF,Pastizal,,Los Angeles,Biobio,Biobío,11,08 Biobío,2025-12-16 11:52:00,martes,12
786207678,RIBERA ÑUBLE ORIENTE,Extinguido,55,16,2025-11-15 17:28,2025-11-15 18:21,2025-11-15 18:40,"0,41",-36.54722213745117,-72.08528137207031,CONAF,Pastizal,,San Carlos,Punilla,Ñuble,10,16 Ñuble,2025-11-15 17:28:00,sábado,18
787671213,CRUCE NOVICIADO,Extinguido,133,13,2025-11-21 18:27,2025-11-21 19:39,2025-11-21 20:01,"1,00",-33.317501068115234,-70.83444213867188,CONAF,Pastizal,,Lampa,Chacabuco,Metropolitana,7,13 Metropolitana,2025-11-21 18:27:00,viernes,19
793943209,LOS CRISTALES,Extinguido,221,7,2025-12-16 11:18,2025-12-16 14:44,2025-12-16 16:28,"8,70",-34.97249984741211,-71.17416381835938,CONAF,Pastizal,,Curicó,Curicó,Maule,9,07 Maule,2025-12-16 11:18:00,martes,12
787012400,CRUCE LA VEGA,Extinguido,65,6,2025-11-19 08:05,2025-11-19 09:40,2025-11-19 10:13,"0,10",-33.9901123046875,-71.86486053466797,CONAF,Pastizal,,Navidad,Cardenal Caro,O'Higgins,8,06 O'Higgins,2025-11-19 08:05:00,miércoles,9
793998277,SAN  MARCELO II,Extinguido,125,16,2025-12-16 14:06,2025-12-16 18:08,2025-12-17 11:34,"5,62",-36.709999084472656,-72.26805877685547,CONAF,Desechos,,Chillán Viejo,Diguillín,Ñuble,10,16 Ñuble,2025-12-16 14:06:00,martes,15
793972769,RINCóN DE PANAMA,Extinguido,132,6,2025-12-16 12:47,2025-12-17 14:02,2025-12-17 17:29,"9,50",-34.73222351074219,-71.43805694580078,CONAF,Pastizal,,Santa Cruz,Colchagua,O'Higgins,8,06 O'Higgins,2025-12-16 12:47:00,martes,13
786785765,PITRACO,Extinguido,115,9,2025-11-18 12:27,2025-11-18 15:56,2025-11-19 03:46,"3,40",-38.47888946533203,-72.8324966430664,CONAF,Matorral,,Cholchol,Cautín,La Araucanía,12,09 La Araucanía,2025-11-18 12:27:00,martes,13
794000375,SANTA RITA,Extinguido,244,13,2025-12-16 14:10,2025-12-16 15:14,2025-12-16 15:24,"1,00",-33.6974983215332,-70.53553009033203,CONAF,Pastizal,,Pirque,Cordillera,Metropolitana,7,13 Metropolitana,2025-12-16 14:10:00,martes,15
786208384,VALLE ALEGRE,Extinguido,76,5,2025-11-15 15:25,2025-11-15 16:11,2025-11-15 16:20,"0,07",-32.80547332763672,-71.44125366210938,CONAF,Pastizal,,Quintero,Valparaíso,Valparaíso,6,05 Valparaíso,2025-11-15 15:25:00,sábado,16
783863505,RENICURA,Extinguido,79,9,2025-11-03 17:29,2025-11-03 18:34,2025-11-03 18:38,"0,25",-38.43333435058594,-72.85888671875,CONAF,Matorral,,Galvarino,Cautín,La Araucanía,12,09 La Araucanía,2025-11-03 17:29:00,lunes,18
794019215,PUENTE EL ALA,Extinguido,126,16,2025-12-16 15:08,2025-12-16 16:27,2025-12-16 18:08,"0,83",-36.57722091674805,-72.21277618408203,CONAF,Pastizal,,Chillán,Diguillín,Ñuble,10,16 Ñuble,2025-12-16 15:08:00,martes,16
793979586,FUNDO EL MANZANO,Extinguido,177,5,2025-12-16 13:16,2025-12-16 15:13,2025-12-16 15:53,"0,15",-33.298526763916016,-71.49761199951172,CONAF,Pastizal,,Casablanca,Valparaíso,Valparaíso,6,05 Valparaíso,2025-12-16 13:16:00,martes,14
793710896,LAUTARO ANTIQUINA,Extinguido,188,8,2025-12-15 16:11,2025-12-17 12:13,2025-12-19 12:44,"2,54",-38.043888092041016,-73.41583251953125,CONAF,Matorral,,Cañete,Arauco,Biobío,11,08 Biobío,2025-12-15 16:11:00,lunes,17
794480779,EL ROSAL II,Extinguido,206,8,2025-12-17 18:23,2025-12-17 19:43,2025-12-17 21:55,"0,60",-37.281944274902344,-72.3375015258789,CONAF,Arbolado natural,,Los Angeles,Biobio,Biobío,11,08 Biobío,2025-12-17 18:23:00,miércoles,19
794018563,PIEDRA PARTIDA,Extinguido,134,6,2025-12-16 15:08,2025-12-16 17:39,2025-12-16 18:27,"3,00",-34.18894577026367,-71.76858520507812,CONAF,Pastizal,,Litueche,Cardenal Caro,O'Higgins,8,06 O'Higgins,2025-12-16 15:08:00,martes,16
793254440,TROPICANA,Extinguido,5,3,2025-12-13 18:22,,2025-12-15 17:48,"1,00",-27.60396385192871,-70.24675750732422,CONAF,Arbolado natural,,Tierra Amarilla,Copiapó,Atacama,4,03 Atacama,2025-12-13 18:22:00,sábado,19
786067606,HIJUELA #3,Extinguido,61,8,2025-11-14 15:02,2025-11-14 15:47,2025-11-14 16:39,"0,10",-37.469696044921875,-73.3697509765625,Empresa,,,Curanilahue,Arauco,Biobío,11,08 Biobío,2025-11-14 15:02:00,viernes,16
794016521,EL ARRAYAN,Extinguido,133,6,2025-12-16 14:56,2025-12-16 17:00,2025-12-16 18:33,"4,88",-34.0022087097168,-70.67728424072266,CONAF,Pastizal,,Mostazal,Cachapoal,O'Higgins,8,06 O'Higgins,2025-12-16 14:56:00,martes,15
794346044,LA TRILLA,Extinguido,247,13,2025-12-17 12:34,2025-12-17 14:47,2025-12-17 15:22,"2,50",-33.79833221435547,-70.74166870117188,CONAF,Pastizal,,Paine,Maipo,Metropolitana,7,13 Metropolitana,2025-12-17 12:34:00,miércoles,13
786183045,PUERTO CHOQUE,Extinguido,75,8,2025-11-15 13:23,2025-11-15 16:01,2025-11-15 16:44,"0,12",-38.190834045410156,-73.35472106933594,CONAF,Plantación eucaliptus,,Tirúa,Arauco,Biobío,11,08 Biobío,2025-11-15 13:23:00,sábado,14
791838052,BOLDO GUACHO,Extinguido,206,9,2025-12-08 13:57,2025-12-08 18:25,2025-12-09 11:08,"2,00",-38.845001220703125,-73.0250015258789,CONAF,Plantación eucaliptus,,Nueva Imperial,Cautín,La Araucanía,12,09 La Araucanía,2025-12-08 13:57:00,lunes,14
795042081,LO ULLOA,Extinguido,144,6,2025-12-19 12:05,2025-12-19 13:26,2025-12-19 15:13,"0,10",-34.279415130615234,-71.10244750976562,CONAF,Pastizal,,Coltauco,Cachapoal,O'Higgins,8,06 O'Higgins,2025-12-19 12:05:00,viernes,13
795444496,SANTA GERTRUDIS (PARTICULAR),Extinguido,221,8,2025-12-16 21:55,2025-12-16 23:00,2025-12-16 23:40,"0,50",-37.40109634399414,-72.79264831542969,CONAF,Matorral,,Nacimiento,Biobio,Biobío,11,08 Biobío,2025-12-16 21:55:00,martes,22
795934509,EMBALSE RECOLETA,Extinguido,47,4,2025-12-22 16:42,2025-12-22 18:30,2025-12-22 18:30,"1,43",-30.47736167907715,-71.0885009765625,CONAF,Cultivo agrícola,,Ovalle,Limarí,Coquimbo,5,04 Coquimbo,2025-12-22 16:42:00,lunes,17
796163090,CENTRAL RAPEL,Extinguido,155,6,2025-12-23 13:30,2025-12-26 17:11,2025-12-27 19:10,"765,00",-34.04666519165039,-71.56916809082031,CONAF,Pastizal,,Litueche,Cardenal Caro,O'Higgins,8,06 O'Higgins,2025-12-23 13:30:00,martes,14
795671304,LAS HIJUELAS,Extinguido,150,6,2025-12-21 17:10,2025-12-21 19:08,2025-12-21 19:33,"0,20",-34.685306549072266,-71.25852966308594,CONAF,Matorral,,Chépica,Colchagua,O'Higgins,8,06 O'Higgins,2025-12-21 17:10:00,domingo,18
795646525,SAN MARCOS,Extinguido,45,4,2025-12-21 14:49,2025-12-21 19:00,2025-12-21 21:55,"2,70",-30.950166702270508,-71.0653076171875,CONAF,Matorral,,Combarbalá,Limarí,Coquimbo,5,04 Coquimbo,2025-12-21 14:49:00,domingo,15
795089996,LOS MAQUIS 2,Extinguido,243,7,2025-12-19 14:42,2025-12-19 15:52,2025-12-19 17:07,"0,30",-35.22055435180664,-71.43499755859375,CONAF,Pastizal,,Río Claro,Talca,Maule,9,07 Maule,2025-12-19 14:42:00,viernes,15
794844687,LOS ALAMOS Y SAN AMBROSIO,Extinguido,226,8,2025-12-17 20:27,2025-12-17 20:55,2025-12-17 21:15,"0,07",-37.62305450439453,-73.4808349609375,Empresa,,,Los Alamos,Arauco,Biobío,11,08 Biobío,2025-12-17 20:27:00,miércoles,21
782623965,CRUCE EL MARCO,Extinguido,37,13,2025-10-27 14:24,2025-10-27 15:43,2025-10-27 16:48,"0,20",-33.6740837097168,-71.16039276123047,CONAF,Pastizal,,Melipilla,Melipilla,Metropolitana,7,13 Metropolitana,2025-10-27 14:24:00,lunes,15
795636054,CAMINO REAL,Extinguido,149,6,2025-12-21 14:10,2025-12-21 16:39,2025-12-21 18:34,"2,00",-34.59688949584961,-70.97366333007812,CONAF,Pastizal,,San Fernando,Colchagua,O'Higgins,8,06 O'Higgins,2025-12-21 14:10:00,domingo,15
795649120,REPOSO,Extinguido,224,8,2025-12-21 15:56,2025-12-21 16:37,2025-12-21 16:40,"0,32",-37.81666564941406,-73.36972045898438,CONAF,Pastizal,,Cañete,Arauco,Biobío,11,08 Biobío,2025-12-21 15:56:00,domingo,16
794870546,COLIMAN,Extinguido,247,9,2025-12-18 19:19,2025-12-18 19:53,2025-12-18 19:54,"0,06",-38.41694259643555,-72.39389038085938,CONAF,Matorral,,Perquenco,Cautín,La Araucanía,12,09 La Araucanía,2025-12-18 19:19:00,jueves,20
794377503,LIUCURA,Extinguido,242,9,2025-12-17 14:06,2025-12-17 16:02,2025-12-17 16:26,"1,02",-38.255279541015625,-72.87972259521484,CONAF,Matorral,,Lumaco,Malleco,La Araucanía,12,09 La Araucanía,2025-12-17 14:06:00,miércoles,15
790899089,REPOCURA 3,Extinguido,190,9,2025-12-04 17:31,2025-12-04 20:46,2025-12-05 12:35,"2,00",-38.49972152709961,-72.91222381591797,CONAF,Pastizal,,Cholchol,Cautín,La Araucanía,12,09 La Araucanía,2025-12-04 17:31:00,jueves,18
794745351,LAGUNA CATAPILCO,Extinguido,188,5,2025-12-18 13:14,2025-12-18 14:30,2025-12-18 14:48,"0,34",-32.5456657409668,-71.2826919555664,CONAF,Pastizal,,Zapallar,Petorca,Valparaíso,6,05 Valparaíso,2025-12-18 13:14:00,jueves,14
788567440,SAN LORENZO,Extinguido,109,5,2025-11-25 13:40,2025-11-25 15:01,2025-11-25 15:15,"0,21",-32.442222595214844,-70.9941635131836,CONAF,Pastizal,,Cabildo,Petorca,Valparaíso,6,05 Valparaíso,2025-11-25 13:40:00,martes,14
795119786,TRUVULAUQUEN,Extinguido,252,9,2025-12-19 16:03,2025-12-19 17:58,2025-12-19 19:01,"1,16",-38.11916732788086,-72.97110748291016,CONAF,Plantación pino,,Purén,Malleco,La Araucanía,12,09 La Araucanía,2025-12-19 16:03:00,viernes,17
788563795,VALLE HERMOSO,Extinguido,108,5,2025-11-25 13:25,2025-11-25 16:12,2025-11-25 16:15,"0,92",-32.43602752685547,-71.22205352783203,CONAF,Pastizal,,La Ligua,Petorca,Valparaíso,6,05 Valparaíso,2025-11-25 13:25:00,martes,14
788803608,CAMINO CHICAUMA 2,Extinguido,145,13,2025-11-26 13:43,2025-11-26 15:09,2025-11-26 15:18,"0,60",-33.23872375488281,-70.92507934570312,CONAF,Pastizal,,Lampa,Chacabuco,Metropolitana,7,13 Metropolitana,2025-11-26 13:43:00,miércoles,14
789072279,MOLINOS,Extinguido,118,5,2025-11-27 15:07,2025-11-27 16:52,2025-11-27 18:31,"2,80",-32.407501220703125,-71.02777862548828,CONAF,Pastizal,,Cabildo,Petorca,Valparaíso,6,05 Valparaíso,2025-11-27 15:07:00,jueves,16
789015122,LOS LIBERTADORES,Extinguido,148,13,2025-11-27 11:15,2025-11-27 12:30,2025-11-27 12:33,"0,10",-33.11319351196289,-70.69239044189453,CONAF,Pastizal,,Colina,Chacabuco,Metropolitana,7,13 Metropolitana,2025-11-27 11:15:00,jueves,12
788364779,CHARRUA,Extinguido,148,8,2025-11-22 18:09,2025-11-22 18:35,2025-11-22 19:40,"0,02",-37.100555419921875,-72.3183364868164,Empresa,,,Cabrero,Biobio,Biobío,11,08 Biobío,2025-11-22 18:09:00,sábado,19
786895698,TRABUNQUILLEN,Extinguido,121,9,2025-11-18 18:30,2025-11-18 20:56,2025-11-18 20:56,"0,08",-38.43611526489258,-72.91552734375,CONAF,Pastizal,,Galvarino,Cautín,La Araucanía,12,09 La Araucanía,2025-11-18 18:30:00,martes,19
795076295,SANTA RAQUEL,Extinguido,241,7,2025-12-19 14:00,2025-12-19 17:59,2025-12-19 19:02,"10,50",-35.124637603759766,-71.22802734375,CONAF,Pastizal,,Molina,Curicó,Maule,9,07 Maule,2025-12-19 14:00:00,viernes,15
795857672,BAJOS DE LIRCAY,Extinguido,257,7,2025-12-22 11:58,2025-12-22 15:49,2025-12-22 18:14,"8,00",-35.48122024536133,-71.36528015136719,CONAF,Pastizal,,San Clemente,Talca,Maule,9,07 Maule,2025-12-22 11:58:00,lunes,12
791114051,CHUCAUCO,Extinguido,192,9,2025-12-05 14:04,2025-12-05 16:44,2025-12-05 20:45,"0,20",-38.8477783203125,-72.74805450439453,CONAF,Plantación pino,,Freire,Cautín,La Araucanía,12,09 La Araucanía,2025-12-05 14:04:00,viernes,15
795096694,LA  ARENA,Extinguido,6,3,2025-12-19 15:00,2025-12-19 16:56,2025-12-19 17:07,"0,58",-28.910907745361328,-70.28014373779297,CONAF,,,Alto del Carmen,Huasco,Atacama,4,03 Atacama,2025-12-19 15:00:00,viernes,16
786918674,VILLA GENESIS,Extinguido,92,8,2025-11-18 20:00,2025-11-18 21:51,2025-11-19 12:38,"0,05",-37.467498779296875,-72.41166687011719,CONAF,Plantación pino,,Los Angeles,Biobio,Biobío,11,08 Biobío,2025-11-18 20:00:00,martes,21
795987913,NUEVA FRANCIA,Extinguido,239,9,2025-12-16 17:37,2025-12-17 15:40,2025-12-21 14:00,"7,80",-38.10138702392578,-72.27777862548828,Empresa,,,Ercilla,Malleco,La Araucanía,12,09 La Araucanía,2025-12-16 17:37:00,martes,18
795111436,GUAPI BAJO 3,Extinguido,244,7,2025-12-19 15:47,2025-12-19 17:10,2025-12-19 17:30,"0,50",-35.87533187866211,-71.61116790771484,CONAF,Pastizal,,Linares,Linares,Maule,9,07 Maule,2025-12-19 15:47:00,viernes,16
795141951,EL CURATO,Extinguido,255,13,2025-12-19 17:18,2025-12-19 18:33,2025-12-19 19:26,"1,10",-33.59749984741211,-70.82499694824219,CONAF,Pastizal,,Peñaflor,Talagante,Metropolitana,7,13 Metropolitana,2025-12-19 17:18:00,viernes,18
795872104,ABRANTES 2,Extinguido,259,13,2025-12-22 13:00,2025-12-22 14:33,2025-12-22 15:02,"2,00",-33.86619567871094,-70.83966827392578,CONAF,Pastizal,,Paine,Maipo,Metropolitana,7,13 Metropolitana,2025-12-22 13:00:00,lunes,14
794430740,LLONCAO,Extinguido,202,8,2025-12-17 16:19,2025-12-18 00:16,2025-12-20 06:16,"6,24",-37.88722229003906,-73.45083618164062,CONAF,Pastizal,,Cañete,Arauco,Biobío,11,08 Biobío,2025-12-17 16:19:00,miércoles,17
789035450,PASO DEL LEON-EL MAITEN,Extinguido,163,8,2025-11-26 06:04,2025-11-26 09:41,2025-11-26 18:04,"0,01",-36.96888732910156,-72.78388977050781,Empresa,,,Hualqui,Concepción,Biobío,11,08 Biobío,2025-11-26 06:04:00,miércoles,7
788081534,210 - LAS BANDURRIAS 2 (PARTICULAR),Extinguido,210,9,2025-11-23 13:26,2025-11-23 15:42,2025-11-28 19:45,"1,84",-38.11722183227539,-72.81194305419922,Empresa,,,Los Sauces,Malleco,La Araucanía,12,09 La Araucanía,2025-11-23 13:26:00,domingo,14
786524702,SAN MARTIN,Extinguido,81,5,2025-11-17 12:03,2025-11-17 14:15,2025-11-17 14:15,"0,03",-32.85361099243164,-70.70166778564453,CONAF,Pastizal,,Rinconada,Los Andes,Valparaíso,6,05 Valparaíso,2025-11-17 12:03:00,lunes,13
795891638,CAMINO AL TOYO,Extinguido,260,13,2025-12-22 14:09,2025-12-22 15:40,2025-12-22 16:15,"0,40",-33.59169387817383,-70.3812484741211,CONAF,Pastizal,,San José de Maipo,Cordillera,Metropolitana,7,13 Metropolitana,2025-12-22 14:09:00,lunes,15
795078487,EL PRADO,Extinguido,240,7,2025-12-19 14:05,2025-12-19 17:44,2025-12-19 19:40,"9,50",-34.98488998413086,-71.17008209228516,CONAF,Pastizal,,Curicó,Curicó,Maule,9,07 Maule,2025-12-19 14:05:00,viernes,15
796470206,BULI ESTACION,Extinguido,144,16,2025-12-24 12:25,2025-12-24 14:07,2025-12-24 17:05,"1,98",-36.360557556152344,-71.93583679199219,CONAF,Pastizal,,San Carlos,Punilla,Ñuble,10,16 Ñuble,2025-12-24 12:25:00,miércoles,13
789984578,CALLE MARATHON 2,Extinguido,131,5,2025-12-01 14:17,2025-12-01 17:08,2025-12-01 18:16,"0,60",-32.78019714355469,-71.2015609741211,CONAF,Pastizal,,Calera,Quillota,Valparaíso,6,05 Valparaíso,2025-12-01 14:17:00,lunes,15
795140952,ORILLA DE VALDES,Extinguido,246,7,2025-12-19 17:15,2025-12-19 19:18,2025-12-19 20:46,"5,00",-35.073612213134766,-71.62767028808594,CONAF,Pastizal,,Hualañé,Curicó,Maule,9,07 Maule,2025-12-19 17:15:00,viernes,18
795139750,AROMOS DE TABALI 2,Extinguido,42,4,2025-12-19 16:55,2025-12-20 10:35,2025-12-20 17:55,"2,30",-30.62908363342285,-71.39630889892578,CONAF,Matorral,,Ovalle,Limarí,Coquimbo,5,04 Coquimbo,2025-12-19 16:55:00,viernes,17
795896296,PIHUCHEN,Extinguido,151,6,2025-12-22 14:36,2025-12-22 16:00,2025-12-22 16:45,"3,00",-34.46003723144531,-71.6349105834961,CONAF,Cultivo agrícola,,Marchigue,Cardenal Caro,O'Higgins,8,06 O'Higgins,2025-12-22 14:36:00,lunes,15
781825235,SANTA ANA,Extinguido,29,9,2025-10-19 17:06,2025-10-19 19:05,2025-10-21 10:45,"1,64",-37.92885971069336,-72.95630645751953,Empresa,,,Los Sauces,Malleco,La Araucanía,12,09 La Araucanía,2025-10-19 17:06:00,domingo,18
791184120,PIUCHEN 2,Extinguido,195,9,2025-12-05 18:07,2025-12-05 19:44,2025-12-05 20:07,"0,20",-38.51972198486328,-72.88111114501953,CONAF,Matorral,,Cholchol,Cautín,La Araucanía,12,09 La Araucanía,2025-12-05 18:07:00,viernes,19
795190769,LAS PAREDES,Extinguido,248,7,2025-12-19 19:20,2025-12-19 21:29,2025-12-19 22:18,"0,20",-35.271942138671875,-71.50861358642578,CONAF,Pastizal,,San Rafael,Talca,Maule,9,07 Maule,2025-12-19 19:20:00,viernes,20
795179924,LA GLORIA,Extinguido,247,7,2025-12-19 19:46,2025-12-19 21:29,2025-12-19 21:46,"0,80",-36.125831604003906,-71.82666778564453,CONAF,Pastizal,,Parral,Linares,Maule,9,07 Maule,2025-12-19 19:46:00,viernes,20
795156650,EL ESTERO,Extinguido,145,6,2025-12-19 17:55,2025-12-19 19:09,2025-12-19 19:40,"0,01",-34.154361724853516,-71.44830322265625,CONAF,Pastizal,,Las Cabras,Cachapoal,O'Higgins,8,06 O'Higgins,2025-12-19 17:55:00,viernes,18
795095671,ISLA CAUTIN,Extinguido,251,9,2025-12-19 15:01,2025-12-19 16:44,2025-12-20 00:26,"0,45",-38.75166702270508,-72.5955581665039,CONAF,Matorral,,Temuco,Cautín,La Araucanía,12,09 La Araucanía,2025-12-19 15:01:00,viernes,16
795043473,RALIPITRA,Extinguido,250,9,2025-12-19 12:26,2025-12-19 14:46,2025-12-20 00:31,"0,50",-38.8488883972168,-72.91944122314453,CONAF,Matorral,,Nueva Imperial,Cautín,La Araucanía,12,09 La Araucanía,2025-12-19 12:26:00,viernes,13
795932393,CAMINO CHALINGA,Extinguido,46,4,2025-12-22 16:30,2025-12-22 18:21,2025-12-22 19:22,"3,00",-30.679000854492188,-71.29169464111328,CONAF,Pastizal,,Ovalle,Limarí,Coquimbo,5,04 Coquimbo,2025-12-22 16:30:00,lunes,17
794502403,LLONCAO III,Extinguido,207,8,2025-12-17 18:56,2025-12-18 09:29,2025-12-20 06:15,"2,70",-37.905555725097656,-73.46944427490234,CONAF,Matorral,,Cañete,Arauco,Biobío,11,08 Biobío,2025-12-17 18:56:00,miércoles,19
794884347,UNIHUE,Extinguido,213,8,2025-12-18 20:02,2025-12-19 14:20,2025-12-19 14:20,"0,04",-37.05500030517578,-72.95305633544922,CONAF,Pastizal,,Hualqui,Concepción,Biobío,11,08 Biobío,2025-12-18 20:02:00,jueves,21
796158861,ITAHUE 2,Extinguido,262,7,2025-12-23 13:17,2025-12-23 17:06,2025-12-24 13:23,"5,00",-35.14805603027344,-71.36444091796875,CONAF,Pastizal,,Río Claro,Talca,Maule,9,07 Maule,2025-12-23 13:17:00,martes,14
794892245,PORTEZUELO 1,Extinguido,143,6,2025-12-18 19:34,2025-12-18 21:00,2025-12-18 21:10,"2,70",-34.71831130981445,-71.39817810058594,CONAF,Cultivo agrícola,,Santa Cruz,Colchagua,O'Higgins,8,06 O'Higgins,2025-12-18 19:34:00,jueves,20
787663514,QUITRA-QUITRA,Extinguido,32,10,2025-11-21 17:25,2025-11-21 21:09,2025-11-22 17:12,"0,70",-40.38249969482422,-73.35333251953125,CONAF,Plantación eucaliptus,,San Pablo,Osorno,Los Lagos,14,10 Los Lagos,2025-11-21 17:25:00,viernes,18
796306478,CONUNHUENU,Extinguido,261,9,2025-12-23 21:30,2025-12-23 22:30,2025-12-23 22:30,"0,01",-38.766387939453125,-72.57499694824219,CONAF,Matorral,,Padre Las Casas,Cautín,La Araucanía,12,09 La Araucanía,2025-12-23 21:30:00,martes,22
795937271,SAN FELIPE,Extinguido,260,7,2025-12-22 17:10,2025-12-22 18:05,2025-12-22 19:15,"0,80",-35.127777099609375,-71.36222076416016,CONAF,Pastizal,,Molina,Curicó,Maule,9,07 Maule,2025-12-22 17:10:00,lunes,18
795084885,LLANO BLANCO,Extinguido,137,16,2025-12-19 14:27,2025-12-19 15:28,2025-12-19 15:52,"0,04",-36.48444366455078,-72.25416564941406,CONAF,Pastizal,,San Nicolás,Punilla,Ñuble,10,16 Ñuble,2025-12-19 14:27:00,viernes,15
795306499,TALHUÉN,Extinguido,43,4,2025-12-20 07:09,2025-12-20 10:28,2025-12-20 11:33,"0,09",-30.59202766418457,-71.20525360107422,CONAF,Basural,,Ovalle,Limarí,Coquimbo,5,04 Coquimbo,2025-12-20 07:09:00,sábado,8
796155242,SANTA MONICA,Extinguido,154,6,2025-12-23 12:40,2025-12-23 13:00,2025-12-23 13:10,"0,01",-34.20127868652344,-71.73585510253906,CONAF,Pastizal,,Litueche,Cardenal Caro,O'Higgins,8,06 O'Higgins,2025-12-23 12:40:00,martes,13
794456402,PALMILLA,Extinguido,230,7,2025-12-17 17:26,2025-12-17 19:24,2025-12-17 19:59,"9,00",-34.870277404785156,-71.32861328125,CONAF,Cultivo agrícola,,Rauco,Curicó,Maule,9,07 Maule,2025-12-17 17:26:00,miércoles,18
793724603,CALLEJON LAS CAUCHAS,Extinguido,121,16,2025-12-15 17:04,2025-12-15 18:13,2025-12-16 10:25,"1,13",-36.4819450378418,-72.23805236816406,CONAF,Pastizal,,San Nicolás,Punilla,Ñuble,10,16 Ñuble,2025-12-15 17:04:00,lunes,18
795281727,238-LA CRUZ ZUNINO- LA CRUZ ZUNINO,Extinguido,238,7,2025-12-20 02:36,2025-12-20 08:30,2025-12-21 17:00,"1,00",-35.5977783203125,-71.33833312988281,Empresa,Matorral,,San Clemente,Talca,Maule,9,07 Maule,2025-12-20 02:36:00,sábado,3
795229567,MANQUECHE,Extinguido,217,8,2025-12-20 00:04,2025-12-21 10:42,2025-12-21 23:06,"2,50",-38.29666519165039,-73.4941635131836,CONAF,Pastizal,,Tirúa,Arauco,Biobío,11,08 Biobío,2025-12-20 00:04:00,sábado,1
796190880,CAMINO LAS VIZCACHAS,Extinguido,204,5,2025-12-23 14:55,2025-12-23 16:14,2025-12-23 17:12,"0,75",-32.84661102294922,-70.51994323730469,CONAF,Pastizal,,Los Andes,Los Andes,Valparaíso,6,05 Valparaíso,2025-12-23 14:55:00,martes,15
783485866,42 - LA VEGUILLA,Extinguido,42,7,2025-11-01 13:23,2025-11-01 15:00,2025-11-03 15:53,"0,40",-35.374168395996094,-71.1241683959961,Empresa,Matorral,,Río Claro,Talca,Maule,9,07 Maule,2025-11-01 13:23:00,sábado,14
786819390,166 - EL AJIAL,Extinguido,166,7,2025-11-18 14:33,2025-11-18 22:05,2025-11-24 20:25,"42,78",-35.1348876953125,-71.6917495727539,Empresa,Matorral,,Curepto,Talca,Maule,9,07 Maule,2025-11-18 14:33:00,martes,15
789041230,RIO BLANCO,Extinguido,115,5,2025-11-27 12:50,2025-11-27 14:19,2025-11-27 14:22,"0,08",-32.911582946777344,-70.30427551269531,CONAF,Pastizal,,Los Andes,Los Andes,Valparaíso,6,05 Valparaíso,2025-11-27 12:50:00,jueves,13
788586934,221 - VILLENA,Extinguido,221,7,2025-11-25 15:00,2025-11-26 08:00,2025-11-26 17:42,"12,00",-35.73087692260742,-72.42707061767578,Empresa,Plantación pino,,Chanco,Cauquenes,Maule,9,07 Maule,2025-11-25 15:00:00,martes,16
795323089,MANQUECHE II,Extinguido,219,8,2025-12-20 10:34,2025-12-21 11:18,2026-01-03 21:35,"5,10",-38.29777908325195,-73.49694061279297,CONAF,Desechos,,Tirúa,Arauco,Biobío,11,08 Biobío,2025-12-20 10:34:00,sábado,11
795424271,BURCA,Extinguido,230,8,2025-12-18 05:14,2025-12-18 08:40,2025-12-19 02:52,"0,30",-36.48472213745117,-72.85944366455078,Empresa,,,Tomé,Concepción,Biobío,11,08 Biobío,2025-12-18 05:14:00,jueves,6
795135094,TRENTREN,Extinguido,245,7,2025-12-19 16:53,2025-12-19 18:32,2025-12-19 19:31,"0,30",-35.060001373291016,-71.12472534179688,CONAF,Pastizal,,Curicó,Curicó,Maule,9,07 Maule,2025-12-19 16:53:00,viernes,17
794467429,PARCELAS ESPIGADO,Extinguido,205,8,2025-12-17 17:58,2025-12-17 19:11,2025-12-24 09:06,"0,15",-37.34638977050781,-73.01860809326172,CONAF,,,Santa Juana,Concepción,Biobío,11,08 Biobío,2025-12-17 17:58:00,miércoles,18
792462814,COIPOLAFQUEN,Extinguido,223,9,2025-12-10 18:00,2025-12-10 23:19,2025-12-10 23:20,"0,01",-38.85453414916992,-72.38341522216797,CONAF,Desechos,,Padre Las Casas,Cautín,La Araucanía,12,09 La Araucanía,2025-12-10 18:00:00,miércoles,19
793728798,COSTA DEL SOL,Extinguido,129,6,2025-12-15 17:18,2025-12-18 17:06,2025-12-19 18:18,"342,00",-34.05058288574219,-71.5998306274414,CONAF,Pastizal,,Litueche,Cardenal Caro,O'Higgins,8,06 O'Higgins,2025-12-15 17:18:00,lunes,18
786558142,PUANGUE,Extinguido,106,13,2025-11-17 14:33,2025-11-17 18:57,2025-11-17 19:45,"7,00",-33.6523323059082,-71.34322357177734,CONAF,Pastizal,,Melipilla,Melipilla,Metropolitana,7,13 Metropolitana,2025-11-17 14:33:00,lunes,15
796473005,EL RECURSO 2,Extinguido,269,13,2025-12-24 12:33,2025-12-24 15:09,2025-12-24 15:45,"7,00",-33.70083236694336,-70.72916412353516,CONAF,Pastizal,,Buin,Maipo,Metropolitana,7,13 Metropolitana,2025-12-24 12:33:00,miércoles,13
795271767,6079 - PELAHUENCO II,Extinguido,231,8,2025-12-20 05:39,2025-12-20 07:32,2025-12-20 09:00,"0,33",-37.696109771728516,-73.5111083984375,Empresa,,,Lebu,Arauco,Biobío,11,08 Biobío,2025-12-20 05:39:00,sábado,6
795990105,COLLIPULLI (PARTICULAR) (TRABAJO SOCIAL),Extinguido,256,9,2025-12-19 16:40,2025-12-19 17:10,2025-12-19 17:45,"0,00",-37.93194580078125,-72.40249633789062,CONAF,Matorral,,Collipulli,Malleco,La Araucanía,12,09 La Araucanía,2025-12-19 16:40:00,viernes,17
796200052,"CHALINGA, SALAMANCA",Extinguido,49,4,2025-12-23 14:30,2025-12-23 16:33,2025-12-23 18:42,"0,10",-31.767417907714844,-70.98102569580078,CONAF,Pastizal,,Salamanca,Choapa,Coquimbo,5,04 Coquimbo,2025-12-23 14:30:00,martes,15
796421593,EL RECURSO,Extinguido,267,13,2025-12-24 09:53,2025-12-24 11:08,2025-12-24 11:20,"0,50",-33.688331604003906,-70.6977767944336,CONAF,Pastizal,,Buin,Maipo,Metropolitana,7,13 Metropolitana,2025-12-24 09:53:00,miércoles,10
795388944,EL ORIENTE,Extinguido,252,7,2025-12-20 15:08,2025-12-20 16:46,2025-12-20 17:26,"0,70",-35.478057861328125,-71.63471984863281,CONAF,Pastizal,,Talca,Talca,Maule,9,07 Maule,2025-12-20 15:08:00,sábado,16
796227426,PLANTA POSESIóN,Extinguido,5,12,2025-12-19 01:15,,2025-12-19 11:00,"3,40",-52.226402282714844,-68.95260620117188,CONAF,Pastizal,,San Gregorio,Magallanes,Magallanes,16,12 Magallanes,2025-12-19 01:15:00,viernes,2
795366001,PARQUE COLL 2,Extinguido,44,4,2025-12-20 13:22,2025-12-20 16:45,2025-12-20 20:40,"4,00",-29.909805297851562,-71.23345184326172,CONAF,Pastizal,,La Serena,Elqui,Coquimbo,5,04 Coquimbo,2025-12-20 13:22:00,sábado,14
795094214,CRUCE SONORA,Extinguido,41,4,2025-12-19 14:32,2025-12-19 15:19,2025-12-19 15:38,"0,04",-30.649930953979492,-71.24075317382812,CONAF,Pastizal,,Ovalle,Limarí,Coquimbo,5,04 Coquimbo,2025-12-19 14:32:00,viernes,15
795376153,PFV-DOÑA BERTA,Extinguido,193,5,2025-12-20 14:21,2025-12-20 16:03,2025-12-20 17:47,"2,63",-32.93539047241211,-71.34530639648438,CONAF,Pastizal,,Quillota,Quillota,Valparaíso,6,05 Valparaíso,2025-12-20 14:21:00,sábado,15
796236278,SECTOR 5 PLAYA ANCHA,Extinguido,208,5,2025-12-23 17:08,2025-12-23 19:24,2025-12-23 19:45,"0,17",-33.05487060546875,-71.65228271484375,CONAF,Pastizal,,Valparaíso,Valparaíso,Valparaíso,6,05 Valparaíso,2025-12-23 17:08:00,martes,18
