id,nombre,estado,num_reg,reg_id,f_inicio,f_control,f_extincion,sup_total,lat,lon,ambito,comb_inicial,snaspe,comuna,provincia,region,reg_order,nom_order,fmt_inicio,dia_nom,rango_hora
781414047,MOQUELLA,Extinguido,4,1,2025-10-19 10:45,2025-10-19 13:54,2025-10-20 15:30,"0,50",-19.352378845214844,-69.5189208984375,CONAF,,,Camiña,Tamarugal,Tarapacá,2,01 Tarapacá,2025-10-19 10:45:00,domingo,11
779275912,QUILLAGUASA,Extinguido,3,1,2025-09-29 09:30,2025-09-29 18:30,2025-09-29 19:37,"7,50",-19.91301155090332,-69.4968032836914,CONAF,Pastizal,,Huara,Tamarugal,Tarapacá,2,01 Tarapacá,2025-09-29 09:30:00,lunes,10
779275455,LAS ÁNIMAS,Extinguido,2,1,2025-09-28 06:50,2025-09-28 08:00,2025-09-28 08:30,"0,02",-20.49175453186035,-69.32445526123047,CONAF,Desechos,,Pica,Tamarugal,Tarapacá,2,01 Tarapacá,2025-09-28 06:50:00,domingo,7
777217333,IPLA,Extinguido,1,1,2025-07-22 00:30,2025-07-22 01:45,2025-07-22 02:35,"0,13",-20.074562072753906,-69.21556854248047,CONAF,Pastizal,,Pozo Almonte,Tamarugal,Tarapacá,2,01 Tarapacá,2025-07-22 00:30:00,martes,1
777383343,RAFAEL ZORRAINDO,Extinguido,1,3,2025-08-04 13:35,2025-08-04 16:00,2025-08-05 17:22,"0,17",-27.398555755615234,-70.29679870605469,CONAF,Arbolado natural,,Copiapó,Copiapó,Atacama,4,03 Atacama,2025-08-04 13:35:00,lunes,14
781821214,FUNDO MONTT,Extinguido,2,3,2025-10-22 06:00,,2025-10-22 17:01,"0,10",-28.474905014038086,-71.15322875976562,CONAF,,,Huasco,Huasco,Atacama,4,03 Atacama,2025-10-22 06:00:00,miércoles,7
777278741,PARQUE COLL,Extinguido,1,4,2025-07-25 14:40,2025-07-25 16:40,2025-07-25 17:40,"0,20",-29.913610458374023,-71.23110961914062,CONAF,Pastizal,,La Serena,Elqui,Coquimbo,5,04 Coquimbo,2025-07-25 14:40:00,viernes,15
777997560,TRES CRUCES BAJO,Extinguido,2,4,2025-09-09 15:57,2025-09-10 15:15,2025-09-10 17:56,"7,00",-29.997028350830078,-70.5352783203125,CONAF,Matorral,,Paiguano,Elqui,Coquimbo,5,04 Coquimbo,2025-09-09 15:57:00,martes,16
778467128,CHAñAR BLANCO,Extinguido,3,4,2025-09-17 14:00,2025-09-17 18:30,2025-09-17 20:20,"5,00",-30.037694931030273,-70.51203155517578,CONAF,Pastizal,,Paiguano,Elqui,Coquimbo,5,04 Coquimbo,2025-09-17 14:00:00,miércoles,15
781515635,EL ALMENDRAL,Extinguido,10,4,2025-10-20 04:18,2025-10-20 09:50,2025-10-20 12:55,"0,20",-29.98647117614746,-70.89122009277344,CONAF,Arbolado natural,,Vicuña,Elqui,Coquimbo,5,04 Coquimbo,2025-10-20 04:18:00,lunes,5
782335547,MINCHA SUR,Extinguido,13,4,2025-10-25 12:50,2025-10-25 15:08,2025-10-25 15:08,"0,63",-31.615278244018555,-71.42388916015625,CONAF,Pastizal,,Canela,Choapa,Coquimbo,5,04 Coquimbo,2025-10-25 12:50:00,sábado,13
781055550,LLANOS DE COGOTí,Extinguido,9,4,2025-10-16 15:17,2025-10-16 19:26,2025-10-16 21:00,"2,30",-31.08905601501465,-70.96321868896484,CONAF,Pastizal,,Combarbalá,Limarí,Coquimbo,5,04 Coquimbo,2025-10-16 15:17:00,jueves,16
781887657,FUNDO AGROKING,Extinguido,11,4,2025-10-22 15:00,2025-10-22 16:43,2025-10-22 17:22,"0,70",-30.793500900268555,-70.95999908447266,CONAF,Pastizal,,Monte Patria,Limarí,Coquimbo,5,04 Coquimbo,2025-10-22 15:00:00,miércoles,16
779777867,COLLIGUAY BAJO,Extinguido,5,4,2025-10-04 17:25,2025-10-05 18:28,2025-10-06 13:02,"9,00",-30.850860595703125,-70.7582778930664,CONAF,Pastizal,,Monte Patria,Limarí,Coquimbo,5,04 Coquimbo,2025-10-04 17:25:00,sábado,18
782296577,EL MANZANO,Extinguido,12,4,2025-10-24 19:50,2025-10-25 13:16,2025-10-25 15:37,"1,80",-30.68633270263672,-71.28883361816406,CONAF,Pastizal,,Ovalle,Limarí,Coquimbo,5,04 Coquimbo,2025-10-24 19:50:00,viernes,20
782804924,LA VERDIONA,Extinguido,14,4,2025-10-28 13:32,2025-10-28 15:19,2025-10-28 16:06,"1,00",-30.441471099853516,-71.19641876220703,CONAF,Pastizal,,Ovalle,Limarí,Coquimbo,5,04 Coquimbo,2025-10-28 13:32:00,martes,14
782820514,LA VERDIONA 2,Extinguido,15,4,2025-10-28 13:32,2025-10-28 15:00,2025-10-28 15:00,"0,20",-30.4423885345459,-71.20500183105469,CONAF,Pastizal,,Ovalle,Limarí,Coquimbo,5,04 Coquimbo,2025-10-28 13:32:00,martes,14
778691899,AROMO TABALI,Extinguido,4,4,2025-09-21 16:45,2025-09-21 19:54,2025-09-22 09:50,"1,00",-30.626083374023438,-71.40721893310547,CONAF,Matorral,,Ovalle,Limarí,Coquimbo,5,04 Coquimbo,2025-09-21 16:45:00,domingo,17
780286190,PANULCILLO,Extinguido,6,4,2025-10-09 15:40,2025-10-09 16:30,2025-10-09 16:35,"0,50",-30.44300079345703,-71.18419647216797,CONAF,Pastizal,,Ovalle,Limarí,Coquimbo,5,04 Coquimbo,2025-10-09 15:40:00,jueves,16
780503721,LA CHIMBA,Extinguido,7,4,2025-10-11 17:30,2025-10-11 19:00,2025-10-11 21:10,"0,26",-30.63808250427246,-71.2524185180664,CONAF,Matorral,,Ovalle,Limarí,Coquimbo,5,04 Coquimbo,2025-10-11 17:30:00,sábado,18
780507299,LA CHIMBA 2,Extinguido,8,4,2025-10-11 17:30,2025-10-11 19:46,2025-10-12 13:00,"0,11",-30.6385555267334,-71.25555419921875,CONAF,Matorral,,Ovalle,Limarí,Coquimbo,5,04 Coquimbo,2025-10-11 17:30:00,sábado,18
777277928,ENLACE LAGUNILLAS,Extinguido,4,5,2025-07-25 15:15,2025-07-25 16:28,2025-07-25 16:47,"8,35",-33.38711929321289,-71.45325469970703,CONAF,Pastizal,,Casablanca,Valparaíso,Valparaíso,6,05 Valparaíso,2025-07-25 15:15:00,viernes,16
778511172,LA VINILLA,Extinguido,9,5,2025-09-18 10:36,2025-09-18 13:50,2025-09-18 14:50,"0,08",-33.34722137451172,-71.31527709960938,CONAF,Pastizal,,Casablanca,Valparaíso,Valparaíso,6,05 Valparaíso,2025-09-18 10:36:00,jueves,11
782802199,SANTA JULIA,Extinguido,31,5,2025-10-28 13:55,2025-10-28 16:23,2025-10-28 16:54,"0,01",-32.84783172607422,-71.49533081054688,CONAF,Desechos,,Quintero,Valparaíso,Valparaíso,6,05 Valparaíso,2025-10-28 13:55:00,martes,14
782641405,EL OLIVAR,Extinguido,30,5,2025-10-27 15:44,2025-10-27 16:32,2025-10-27 16:32,"0,01",-33.02914047241211,-71.4949722290039,CONAF,Pastizal,,Viña del Mar,Valparaíso,Valparaíso,6,05 Valparaíso,2025-10-27 15:44:00,lunes,16
777341661,OCAC,Extinguido,6,5,2025-07-30 15:30,2025-07-30 18:15,2025-07-30 18:20,"0,50",-27.102699279785156,-109.30438995361328,CONAF,Pastizal,Rapa Nui,Isla de Pascua,Isla de Pascua,Valparaíso Insular,6,05 Valparaíso Insular,2025-07-30 15:30:00,miércoles,16
777042837,VIñA INSITU,Extinguido,2,5,2025-07-08 11:40,2025-07-08 15:31,2025-07-08 16:09,"0,10",-32.83330154418945,-70.5831527709961,CONAF,Desechos,,San Esteban,Los Andes,Valparaíso,6,05 Valparaíso,2025-07-08 11:40:00,martes,12
782453697,EL QUEMADO,Extinguido,28,5,2025-10-26 12:00,2025-10-26 13:37,2025-10-26 13:52,"0,17",-32.433998107910156,-71.0235595703125,CONAF,Pastizal,,Cabildo,Petorca,Valparaíso,6,05 Valparaíso,2025-10-26 12:00:00,domingo,13
782989133,LA VEGA,Extinguido,33,5,2025-10-29 14:10,2025-10-29 15:20,2025-10-29 15:27,"0,08",-32.44502639770508,-70.93861389160156,CONAF,Pastizal,,Cabildo,Petorca,Valparaíso,6,05 Valparaíso,2025-10-29 14:10:00,miércoles,15
781937824,ARTIFICIO,Extinguido,25,5,2025-10-22 20:14,2025-10-22 21:38,2025-10-23 12:42,"0,03",-32.78005599975586,-71.1991958618164,CONAF,Pastizal,,Calera,Quillota,Valparaíso,6,05 Valparaíso,2025-10-22 20:14:00,miércoles,21
777029904,CALLE OHIGGINS,Extinguido,1,5,2025-07-07 15:57,2025-07-08 11:35,2025-07-11 09:33,"0,03",-32.78972244262695,-71.22805786132812,CONAF,Pastizal,,Calera,Quillota,Valparaíso,6,05 Valparaíso,2025-07-07 15:57:00,lunes,16
780284240,CUATRO ESQUINAS,Extinguido,16,5,2025-10-09 15:37,2025-10-09 17:41,2025-10-09 17:50,"0,17",-32.820945739746094,-71.15511322021484,CONAF,Matorral,,Hijuelas,Quillota,Valparaíso,6,05 Valparaíso,2025-10-09 15:37:00,jueves,16
782314669,CUESTA EL MELON,Extinguido,26,5,2025-10-25 11:09,2025-10-25 12:23,2025-10-25 12:23,"0,10",-32.63197326660156,-71.36572265625,CONAF,Pastizal,,Nogales,Quillota,Valparaíso,6,05 Valparaíso,2025-10-25 11:09:00,sábado,12
779862887,ROSALES,Extinguido,13,5,2025-10-05 18:47,2025-10-06 10:46,2025-10-07 17:47,"0,07",-32.872501373291016,-71.25711059570312,CONAF,Pastizal,,Quillota,Quillota,Valparaíso,6,05 Valparaíso,2025-10-05 18:47:00,domingo,19
781296976,LOS CLAVELES,Extinguido,19,5,2025-10-18 12:42,2025-10-18 14:02,2025-10-18 14:41,"0,04",-33.36637496948242,-71.6692886352539,CONAF,Pastizal,,Algarrobo,San Antonio,Valparaíso,6,05 Valparaíso,2025-10-18 12:42:00,sábado,13
777054054,EL TURCO,Extinguido,3,5,2025-07-08 17:00,2025-07-08 18:20,2025-07-08 18:21,"0,01",-33.54902648925781,-71.4782485961914,CONAF,Pastizal,,Cartagena,San Antonio,Valparaíso,6,05 Valparaíso,2025-07-08 17:00:00,martes,18
780545025,TOTORAL,Extinguido,17,5,2025-10-12 10:30,2025-10-12 11:11,2025-10-12 11:44,"0,04",-33.406639099121094,-71.66236114501953,CONAF,Pastizal,,El Quisco,San Antonio,Valparaíso,6,05 Valparaíso,2025-10-12 10:30:00,domingo,11
777325818,FUNDO NICOLAO,Extinguido,5,5,2025-07-29 19:20,2025-07-31 14:30,2025-07-31 14:32,"2,27",-33.83402633666992,-71.80186462402344,CONAF,Pastizal,,Santo Domingo,San Antonio,Valparaíso,6,05 Valparaíso,2025-07-29 19:20:00,martes,20
777898540,FUNDO NICOLAO 2,Extinguido,7,5,2025-09-08 09:26,2025-09-09 12:09,2025-09-09 14:56,"4,10",-33.842193603515625,-71.79480743408203,CONAF,Pastizal,,Santo Domingo,San Antonio,Valparaíso,6,05 Valparaíso,2025-09-08 09:26:00,lunes,10
777929397,FUNDO NICOLAO 3,Extinguido,8,5,2025-09-08 14:33,2025-09-09 14:41,2025-09-09 14:42,"0,02",-33.83266067504883,-71.7985610961914,CONAF,Pastizal,,Santo Domingo,San Antonio,Valparaíso,6,05 Valparaíso,2025-09-08 14:33:00,lunes,15
779392018,FUNDO LOS ANGELITOS,Extinguido,11,5,2025-09-30 16:58,2025-09-30 18:00,2025-09-30 18:08,"0,01",-33.67211151123047,-71.59494018554688,CONAF,Pastizal,,Santo Domingo,San Antonio,Valparaíso,6,05 Valparaíso,2025-09-30 16:58:00,martes,17
781619457,LA COLONIA,Extinguido,21,5,2025-10-20 20:47,2025-10-21 10:43,2025-10-21 11:42,"0,50",-32.74944305419922,-70.94527435302734,CONAF,Pastizal,,Catemu,San Felipe de Aconcagua,Valparaíso,6,05 Valparaíso,2025-10-20 20:47:00,lunes,21
781704567,EL ESCORIAL,Extinguido,22,5,2025-10-21 13:26,2025-10-21 16:27,2025-10-21 16:28,"0,03",-32.75014877319336,-70.80018615722656,CONAF,Pastizal,,Panquehue,San Felipe de Aconcagua,Valparaíso,6,05 Valparaíso,2025-10-21 13:26:00,martes,14
779950887,POBLACION YEVIDE,Extinguido,14,5,2025-10-06 15:15,2025-10-06 17:12,2025-10-06 17:15,"0,80",-32.75044631958008,-70.74113464355469,CONAF,Pastizal,,San Felipe,San Felipe de Aconcagua,Valparaíso,6,05 Valparaíso,2025-10-06 15:15:00,lunes,16
782360979,RUTA E405,Extinguido,27,5,2025-10-25 16:15,2025-10-25 17:47,2025-10-25 18:12,"0,15",-32.834442138671875,-70.97694396972656,CONAF,Pastizal,,Llay-Llay,San Felipe de Aconcagua,Valparaíso,6,05 Valparaíso,2025-10-25 16:15:00,sábado,17
780281585,EL MOLINO,Extinguido,15,5,2025-10-09 15:45,2025-10-09 19:25,2025-10-10 14:28,"0,15",-32.831668853759766,-70.98194122314453,CONAF,Pastizal,,Llay-Llay,San Felipe de Aconcagua,Valparaíso,6,05 Valparaíso,2025-10-09 15:45:00,jueves,16
781600993,CANCHA INDUCORN,Extinguido,20,5,2025-10-20 18:15,2025-10-20 19:04,2025-10-20 20:17,"0,35",-32.83583450317383,-70.94889068603516,CONAF,Pastizal,,Llay-Llay,San Felipe de Aconcagua,Valparaíso,6,05 Valparaíso,2025-10-20 18:15:00,lunes,19
779822303,RINCONADA DE PARRAL,Extinguido,9,6,2025-10-05 10:14,2025-10-05 12:00,2025-10-05 12:15,"0,05",-34.24810028076172,-71.080322265625,CONAF,Desechos,,Coltauco,Cachapoal,O'Higgins,8,06 O'Higgins,2025-10-05 10:14:00,domingo,11
780487987,CUESTA IDAHUE,Extinguido,11,6,2025-10-11 15:18,2025-10-12 16:40,2025-10-12 17:13,"0,02",-34.338890075683594,-71.17333221435547,CONAF,Pastizal,,Coltauco,Cachapoal,O'Higgins,8,06 O'Higgins,2025-10-11 15:18:00,sábado,16
782343749,MIRAFLORES,Extinguido,22,6,2025-10-25 14:35,2025-10-25 16:20,2025-10-25 18:48,"0,70",-34.22111129760742,-70.97721862792969,CONAF,Matorral,,Doñihue,Cachapoal,O'Higgins,8,06 O'Higgins,2025-10-25 14:35:00,sábado,15
782600559,LOS QUILLAYES,Extinguido,25,6,2025-10-27 12:33,2025-10-27 13:55,2025-10-27 14:30,"3,70",-34.075557708740234,-71.51750183105469,CONAF,Pastizal,,Las Cabras,Cachapoal,O'Higgins,8,06 O'Higgins,2025-10-27 12:33:00,lunes,13
777106919,CERRO VENTANA,Extinguido,1,6,2025-07-12 13:35,,2025-07-21 10:38,"8,98",-34.198917388916016,-71.07969665527344,CONAF,Matorral,,Las Cabras,Cachapoal,O'Higgins,8,06 O'Higgins,2025-07-12 13:35:00,sábado,14
782655463,EL SEMINARIO  LLALLAUQUEN,Extinguido,26,6,2025-10-27 16:40,2025-10-27 17:38,2025-10-27 18:12,"0,20",-34.251609802246094,-71.42633056640625,CONAF,Pastizal,,Las Cabras,Cachapoal,O'Higgins,8,06 O'Higgins,2025-10-27 16:40:00,lunes,17
778929969,LOS SILOS,Extinguido,5,6,2025-09-24 16:42,2025-09-24 18:10,2025-09-24 18:30,"0,15",-34.22480773925781,-71.29203033447266,CONAF,Matorral,,Las Cabras,Cachapoal,O'Higgins,8,06 O'Higgins,2025-09-24 16:42:00,miércoles,17
779209761,QUEBRADA EL LITRE,Extinguido,7,6,2025-09-28 12:35,2025-09-28 15:30,2025-09-28 17:20,"0,01",-34.25175094604492,-71.1854476928711,CONAF,Pastizal,,Las Cabras,Cachapoal,O'Higgins,8,06 O'Higgins,2025-09-28 12:35:00,domingo,13
781462180,LA REPRESA,Extinguido,16,6,2025-10-19 17:10,2025-10-19 18:23,2025-10-19 19:22,"0,90",-34.19660949707031,-71.28128051757812,CONAF,Matorral,,Las Cabras,Cachapoal,O'Higgins,8,06 O'Higgins,2025-10-19 17:10:00,domingo,18
780753299,SAN JOAQUIN DE LOS MAYOS,Extinguido,14,6,2025-10-14 10:08,2025-10-14 10:56,2025-10-14 11:12,"0,05",-34.19180679321289,-70.70996856689453,CONAF,Desechos,,Machalí,Cachapoal,O'Higgins,8,06 O'Higgins,2025-10-14 10:08:00,martes,11
777985037,QUEBRADA LA PAULA,Extinguido,3,6,2025-09-09 14:20,2025-09-10 12:58,2025-09-11 12:56,"4,50",-34.161991119384766,-70.5347671508789,CONAF,Pastizal,,Machalí,Cachapoal,O'Higgins,8,06 O'Higgins,2025-09-09 14:20:00,martes,15
781203554,SANTA TERESA,Extinguido,15,6,2025-10-17 16:53,2025-10-17 18:00,2025-10-17 18:36,"0,01",-33.969722747802734,-70.6463851928711,CONAF,Pastizal,,Mostazal,Cachapoal,O'Higgins,8,06 O'Higgins,2025-10-17 16:53:00,viernes,17
780482292,FUNDO PICARQUIN,Extinguido,10,6,2025-10-11 14:10,2025-10-11 15:50,2025-10-11 17:17,"0,02",-33.967498779296875,-70.63999938964844,CONAF,Pastizal,,Mostazal,Cachapoal,O'Higgins,8,06 O'Higgins,2025-10-11 14:10:00,sábado,15
780500065,SAN RAFAEL,Extinguido,12,6,2025-10-11 17:18,2025-10-12 12:30,2025-10-12 13:10,"3,00",-34.272945404052734,-71.44583129882812,CONAF,Matorral,,Pichidegua,Cachapoal,O'Higgins,8,06 O'Higgins,2025-10-11 17:18:00,sábado,18
782461831,PORTEZUELO,Extinguido,23,6,2025-10-26 13:13,2025-10-26 15:05,2025-10-26 15:42,"0,80",-34.42766571044922,-70.88166809082031,CONAF,Pastizal,,Rengo,Cachapoal,O'Higgins,8,06 O'Higgins,2025-10-26 13:13:00,domingo,14
779392517,KM 17 RUTA DEL ACIDO,Extinguido,8,6,2025-09-30 17:00,2025-09-30 18:43,2025-09-30 19:00,"0,01",-34.260276794433594,-70.62333679199219,CONAF,Pastizal,,Requínoa,Cachapoal,O'Higgins,8,06 O'Higgins,2025-09-30 17:00:00,martes,18
782162618,HACIENDA DON BASTIAN,Extinguido,20,6,2025-10-24 11:15,2025-10-24 12:36,2025-10-24 12:55,"0,02",-34.22563934326172,-71.65897369384766,CONAF,Pastizal,,La Estrella,Cardenal Caro,O'Higgins,8,06 O'Higgins,2025-10-24 11:15:00,viernes,12
782523425,TOPOCALMA,Extinguido,24,6,2025-10-26 20:48,2025-10-27 11:46,2025-10-27 13:00,"0,30",-34.16411209106445,-71.92710876464844,CONAF,Desechos,,Litueche,Cardenal Caro,O'Higgins,8,06 O'Higgins,2025-10-26 20:48:00,domingo,21
781831752,LA POLCURA,Extinguido,19,6,2025-10-21 17:45,2025-10-22 11:11,2025-10-22 11:31,"0,80",-34.029720306396484,-71.91388702392578,CONAF,Pastizal,,Navidad,Cardenal Caro,O'Higgins,8,06 O'Higgins,2025-10-21 17:45:00,martes,18
781711568,CRUCE EL ARRAYáN,Extinguido,18,6,2025-10-21 14:15,2025-10-21 15:08,2025-10-21 15:14,"0,01",-34.30708312988281,-71.83555603027344,CONAF,Matorral,,Marchigue,Cardenal Caro,O'Higgins,8,06 O'Higgins,2025-10-21 14:15:00,martes,15
778357029,RINCONADA DE NAVARRO,Extinguido,4,6,2025-09-16 08:27,2025-09-16 11:50,2025-09-16 13:27,"0,05",-34.78947067260742,-71.22235870361328,CONAF,Matorral,,Chépica,Colchagua,O'Higgins,8,06 O'Higgins,2025-09-16 08:27:00,martes,9
780574699,LAS PALMAS,Extinguido,13,6,2025-10-12 15:35,2025-10-12 17:35,2025-10-12 18:15,"1,20",-34.848609924316406,-71.4647216796875,CONAF,Desechos,,Chépica,Colchagua,O'Higgins,8,06 O'Higgins,2025-10-12 15:35:00,domingo,16
779001124,PEOR ES NADA,Extinguido,6,6,2025-09-25 13:50,2025-09-25 15:05,2025-09-25 15:34,"0,10",-34.77897262573242,-71.04499816894531,CONAF,Matorral,,Chimbarongo,Colchagua,O'Higgins,8,06 O'Higgins,2025-09-25 13:50:00,jueves,14
781701868,LA PALMA,Extinguido,17,6,2025-10-21 13:15,2025-10-21 15:35,2025-10-21 16:10,"8,00",-34.72819519042969,-71.67063903808594,CONAF,Pastizal,,Lolol,Colchagua,O'Higgins,8,06 O'Higgins,2025-10-21 13:15:00,martes,14
782155544,CALLEUQUE,Extinguido,21,6,2025-10-24 10:43,2025-10-24 13:16,2025-10-24 13:30,"0,01",-34.424442291259766,-71.44361114501953,CONAF,Desechos,,Peralillo,Colchagua,O'Higgins,8,06 O'Higgins,2025-10-24 10:43:00,viernes,11
782865803,LOS CARDOS,Extinguido,27,6,2025-10-28 18:46,2025-10-28 20:30,2025-10-29 12:25,"0,90",-34.471229553222656,-71.46086883544922,CONAF,Pastizal,,Peralillo,Colchagua,O'Higgins,8,06 O'Higgins,2025-10-28 18:46:00,martes,19
779901735,17-DOLLIMO,Extinguido,17,7,2025-10-03 22:55,2025-10-04 02:40,2025-10-06 09:27,"0,08",-35.25361251831055,-72.3102798461914,Empresa,Matorral,,Constitución,Talca,Maule,9,07 Maule,2025-10-03 22:55:00,viernes,23
777737789,2-MARIA JOSE (PARTICULAR),Extinguido,2,7,2025-08-14 14:06,2025-08-14 16:10,2025-08-18 08:38,"0,50",-35.39694595336914,-72.49222564697266,CONAF,Matorral,,Constitución,Talca,Maule,9,07 Maule,2025-08-14 14:06:00,jueves,15
779626600,12- STA CATALINA (PARTICULAR),Extinguido,12,7,2025-09-29 21:06,2025-09-29 23:30,2025-09-29 23:44,"0,25",-35.530555725097656,-72.17472076416016,CONAF,Matorral,,Constitución,Talca,Maule,9,07 Maule,2025-09-29 21:06:00,lunes,22
781315965,BARRANQUILLA,Extinguido,15,7,2025-10-18 14:47,2025-10-18 15:46,2025-10-18 18:30,"0,40",-35.4386100769043,-72.23527526855469,CONAF,Plantación pino,,Constitución,Talca,Maule,9,07 Maule,2025-10-18 14:47:00,sábado,15
777736889,2-LOMA BLANCA GONZALEZ,Extinguido,2,7,2025-07-12 07:38,2025-07-12 15:30,2025-07-14 16:25,"1,60",-35.28138732910156,-71.98388671875,Empresa,Matorral,,Curepto,Talca,Maule,9,07 Maule,2025-07-12 07:38:00,sábado,8
777737520,1-EL AGUILUCHO (PARTICULAR),Extinguido,1,7,2025-08-13 19:38,2025-08-13 22:10,2025-08-31 10:10,"1,10",-35.171390533447266,-72.0169448852539,CONAF,Matorral,,Curepto,Talca,Maule,9,07 Maule,2025-08-13 19:38:00,miércoles,20
778282240,4-LA LEONERA (PARTICULAR),Extinguido,4,7,2025-09-06 21:05,2025-09-07 01:30,2025-09-10 15:55,"1,00",-35.2852783203125,-71.9705581665039,CONAF,Matorral,,Curepto,Talca,Maule,9,07 Maule,2025-09-06 21:05:00,sábado,22
781343112,QUEBRADA DE RAMIREZ,Extinguido,16,7,2025-10-18 17:43,2025-10-18 19:49,2025-10-19 11:42,"0,49",-35.05649948120117,-72.00096130371094,CONAF,Matorral,,Curepto,Talca,Maule,9,07 Maule,2025-10-18 17:43:00,sábado,18
782648054,SANTA RAQUEL,Extinguido,36,7,2025-10-27 16:07,2025-10-27 16:23,2025-10-27 16:42,"0,01",-35.478057861328125,-71.63972473144531,CONAF,Plantación eucaliptus,,Maule,Talca,Maule,9,07 Maule,2025-10-27 16:07:00,lunes,17
782220390,LA ISLA,Extinguido,27,7,2025-10-24 16:31,2025-10-24 17:34,2025-10-24 17:40,"1,50",-35.44194412231445,-71.30916595458984,CONAF,Matorral,,Pelarco,Talca,Maule,9,07 Maule,2025-10-24 16:31:00,viernes,17
781458455,GUAPI,Extinguido,17,7,2025-10-19 16:41,2025-10-19 17:13,2025-10-19 17:26,"0,20",-35.45255661010742,-71.27022552490234,CONAF,Basural,,Pelarco,Talca,Maule,9,07 Maule,2025-10-19 16:41:00,domingo,17
779279008,SANTA PATRICIA,Extinguido,9,7,2025-09-29 12:17,2025-09-29 14:04,2025-09-29 14:52,"0,80",-35.35391616821289,-71.69047546386719,CONAF,Desechos,,Pencahue,Talca,Maule,9,07 Maule,2025-09-29 12:17:00,lunes,13
781566887,QUEBRADA LAS CAÑAS,Extinguido,18,7,2025-10-20 14:49,2025-10-20 16:25,2025-10-20 17:52,"0,40",-35.33250045776367,-71.95244598388672,CONAF,Pastizal,,Pencahue,Talca,Maule,9,07 Maule,2025-10-20 14:49:00,lunes,15
778281891,9-CASAS VIEJAS TAGLE,Extinguido,9,7,2025-07-14 08:10,2025-07-14 16:10,2025-07-15 15:45,"1,70",-35.30683517456055,-71.1935806274414,Empresa,Matorral,,Río Claro,Talca,Maule,9,07 Maule,2025-07-14 08:10:00,lunes,9
778617546,10-CASAS VIEJAS TAGLE,Extinguido,10,7,2025-09-19 17:24,2025-09-19 18:40,2025-09-19 19:21,"0,01",-35.293888092041016,-71.20833587646484,Empresa,Matorral,,Río Claro,Talca,Maule,9,07 Maule,2025-09-19 17:24:00,viernes,18
782372466,PATAGUILLA,Extinguido,32,7,2025-10-25 17:40,2025-10-25 18:57,2025-10-25 20:26,"0,25",-35.297637939453125,-71.17986297607422,CONAF,Plantación pino,,Río Claro,Talca,Maule,9,07 Maule,2025-10-25 17:40:00,sábado,18
778023200,3- LA PATAGUILLA PC.43 B (PARTICULAR),Extinguido,3,7,2025-09-09 16:55,2025-09-09 18:30,2025-09-09 18:43,"0,40",-35.29621505737305,-71.17709350585938,CONAF,Matorral,,Río Claro,Talca,Maule,9,07 Maule,2025-09-09 16:55:00,martes,17
779761375,15-LOS LIRIOS PRIETO,Extinguido,15,7,2025-10-03 10:40,2025-10-03 12:45,2025-10-04 10:15,"0,37",-35.4555549621582,-71.20916748046875,Empresa,Matorral,,San Clemente,Talca,Maule,9,07 Maule,2025-10-03 10:40:00,viernes,11
782347863,LOMILLAS ALTA,Extinguido,31,7,2025-10-25 15:12,2025-10-25 17:10,2025-10-25 18:48,"0,40",-35.554832458496094,-71.30630493164062,CONAF,Pastizal,,San Clemente,Talca,Maule,9,07 Maule,2025-10-25 15:12:00,sábado,16
778389154,FLOR DEL LLANO,Extinguido,5,7,2025-09-16 14:09,2025-09-16 14:40,2025-09-16 14:45,"1,70",-35.50030517578125,-71.538330078125,CONAF,Pastizal,,San Clemente,Talca,Maule,9,07 Maule,2025-09-16 14:09:00,martes,15
780407291,LOS MAITENES,Extinguido,13,7,2025-10-10 16:42,2025-10-10 17:24,2025-10-10 17:34,"0,50",-35.59388732910156,-71.41555786132812,CONAF,Pastizal,,San Clemente,Talca,Maule,9,07 Maule,2025-10-10 16:42:00,viernes,17
782865027,ALTO LIRCAY,Extinguido,39,7,2025-10-28 18:48,2025-10-28 19:04,2025-10-28 19:26,"0,30",-35.404720306396484,-71.59722137451172,CONAF,Pastizal,,Talca,Talca,Maule,9,07 Maule,2025-10-28 18:48:00,martes,19
779391720,PALMIRA,Extinguido,11,7,2025-09-30 16:56,2025-09-30 18:33,2025-09-30 18:47,"0,50",-35.459083557128906,-71.6294174194336,CONAF,Matorral,,Talca,Talca,Maule,9,07 Maule,2025-09-30 16:56:00,martes,17
780754148,TRES ROBLES CHAIMAVIDA,Extinguido,23,7,2025-07-26 14:10,2025-07-28 11:51,2025-08-05 13:23,"0,02",-35.9275016784668,-72.15361022949219,Empresa,Pastizal,,Cauquenes,Cauquenes,Maule,9,07 Maule,2025-07-26 14:10:00,sábado,15
779377113,16-LOTE B VILLA MARIA-CBB,Extinguido,16,7,2025-09-30 14:57,2025-09-30 16:43,2025-10-01 11:50,"1,05",-35.955936431884766,-72.44400787353516,Empresa,Matorral,,Cauquenes,Cauquenes,Maule,9,07 Maule,2025-09-30 14:57:00,martes,15
781895192,TABOLGUEN,Extinguido,23,7,2025-10-22 16:10,2025-10-22 18:02,2025-10-22 18:16,"1,10",-35.914581298828125,-72.37725067138672,CONAF,Pastizal,,Cauquenes,Cauquenes,Maule,9,07 Maule,2025-10-22 16:10:00,miércoles,17
781979454,23 - TABOLGUEN - STA ISABEL (PARTICULAR),Extinguido,24,7,2025-10-22 14:40,2025-10-22 16:55,2025-10-22 19:05,"0,19",-36.07722091674805,-72.43861389160156,CONAF,Matorral,,Cauquenes,Cauquenes,Maule,9,07 Maule,2025-10-22 14:40:00,miércoles,15
779218515,8- SANTA LUISA,Extinguido,8,7,2025-09-28 14:18,2025-09-28 17:42,2025-09-29 12:45,"0,26",-36.067222595214844,-72.17805480957031,CONAF,Desechos,,Cauquenes,Cauquenes,Maule,9,07 Maule,2025-09-28 14:18:00,domingo,15
782345439,LAS GREDAS,Extinguido,30,7,2025-10-25 14:56,2025-10-25 17:09,2025-10-25 18:01,"0,50",-35.617610931396484,-72.54869079589844,CONAF,Matorral,,Chanco,Cauquenes,Maule,9,07 Maule,2025-10-25 14:56:00,sábado,15
782861369,SAN FRANCISCO,Extinguido,38,7,2025-10-28 18:29,2025-10-28 21:10,2025-10-29 11:08,"0,50",-35.73897171020508,-72.5123062133789,CONAF,Matorral,,Chanco,Cauquenes,Maule,9,07 Maule,2025-10-28 18:29:00,martes,19
782207036,TREGUALEMU,Extinguido,26,7,2025-10-24 15:24,2025-10-24 18:25,2025-10-24 21:03,"2,50",-36.002498626708984,-72.74888610839844,CONAF,Matorral,,Pelluhue,Cauquenes,Maule,9,07 Maule,2025-10-24 15:24:00,viernes,16
778944574,CANELILLOS,Extinguido,6,7,2025-09-24 19:03,2025-09-24 20:30,2025-09-25 12:40,"0,60",-35.982582092285156,-72.65972137451172,CONAF,Desechos,,Pelluhue,Cauquenes,Maule,9,07 Maule,2025-09-24 19:03:00,miércoles,20
781711696,CHOVELLEN,Extinguido,21,7,2025-10-21 14:27,2025-10-21 16:58,2025-10-21 17:32,"1,00",-35.89927673339844,-72.66007995605469,CONAF,Plantación pino,,Pelluhue,Cauquenes,Maule,9,07 Maule,2025-10-21 14:27:00,martes,15
782491129,CALLEJON SAN LUIS,Extinguido,34,7,2025-10-26 16:49,2025-10-26 17:57,2025-10-26 18:35,"0,20",-35.15083312988281,-71.2611083984375,CONAF,Plantación eucaliptus,,Molina,Curicó,Maule,9,07 Maule,2025-10-26 16:49:00,domingo,17
782222344,GUAICO 3,Extinguido,28,7,2025-10-24 16:41,2025-10-24 17:42,2025-10-24 18:06,"0,03",-34.96497344970703,-70.99927520751953,CONAF,Matorral,,Romeral,Curicó,Maule,9,07 Maule,2025-10-24 16:41:00,viernes,17
781740508,QUILVO ALTO,Extinguido,22,7,2025-10-21 17:00,2025-10-21 17:59,2025-10-21 18:04,"0,10",-34.93027877807617,-71.1433334350586,CONAF,Matorral,,Romeral,Curicó,Maule,9,07 Maule,2025-10-21 17:00:00,martes,18
781568478,LA ISLA,Extinguido,19,7,2025-10-20 15:01,2025-10-20 16:05,2025-10-20 16:17,"1,75",-35.10708236694336,-71.65227508544922,CONAF,Desechos,,Sagrada Familia,Curicó,Maule,9,07 Maule,2025-10-20 15:01:00,lunes,16
781586908,HUAQUEN,Extinguido,20,7,2025-10-20 16:46,2025-10-20 17:31,2025-10-20 17:50,"0,30",-35.11397171020508,-71.673583984375,CONAF,Pastizal,,Sagrada Familia,Curicó,Maule,9,07 Maule,2025-10-20 16:46:00,lunes,17
782338919,PIEDRA BLANCA,Extinguido,29,7,2025-10-25 14:12,2025-10-25 15:30,2025-10-25 15:56,"0,60",-34.863807678222656,-71.18980407714844,CONAF,Pastizal,,Teno,Curicó,Maule,9,07 Maule,2025-10-25 14:12:00,sábado,15
781208552,RINCON DE SAN CARLOS,Extinguido,14,7,2025-10-17 17:29,2025-10-17 20:48,2025-10-18 11:38,"0,50",-34.891109466552734,-70.99972534179688,CONAF,Pastizal,,Teno,Curicó,Maule,9,07 Maule,2025-10-17 17:29:00,viernes,18
782819307,CAMINO A LA QUINTA,Extinguido,37,7,2025-10-28 15:24,2025-10-28 16:09,2025-10-28 16:29,"0,20",-36.087806701660156,-71.66989135742188,CONAF,Matorral,,Longaví,Linares,Maule,9,07 Maule,2025-10-28 15:24:00,martes,16
779003018,SAN PABLO,Extinguido,7,7,2025-09-25 14:16,2025-09-25 16:14,2025-09-25 17:44,"0,60",-36.15833282470703,-71.79438781738281,CONAF,Desechos,,Parral,Linares,Maule,9,07 Maule,2025-09-25 14:16:00,jueves,15
777815830,SAN JOSé DEL ALTO,Extinguido,6,7,2025-07-29 17:31,2025-07-29 21:00,2025-08-01 10:00,"0,04",-35.90361022949219,-71.9413070678711,Empresa,Desechos,,Retiro,Linares,Maule,9,07 Maule,2025-07-29 17:31:00,martes,18
777815348,BOTACURA,Extinguido,5,7,2025-07-02 22:26,2025-07-03 00:25,2025-07-03 01:30,"0,01",-35.630001068115234,-71.92916870117188,Empresa,Desechos,,San Javier,Linares,Maule,9,07 Maule,2025-07-02 22:26:00,miércoles,23
782181599,CUATRO ESQUINAS,Extinguido,25,7,2025-10-24 13:11,2025-10-24 14:36,2025-10-24 15:28,"0,80",-35.70233154296875,-71.85580444335938,CONAF,Pastizal,,San Javier,Linares,Maule,9,07 Maule,2025-10-24 13:11:00,viernes,14
782610770,CERRO LA CRUZ,Extinguido,35,7,2025-10-27 13:23,2025-10-27 14:25,2025-10-27 14:37,"0,20",-35.56624984741211,-71.69544219970703,CONAF,Matorral,,San Javier,Linares,Maule,9,07 Maule,2025-10-27 13:23:00,lunes,14
782480268,COIRONAL,Extinguido,33,7,2025-10-26 15:41,2025-10-26 15:59,2025-10-26 16:13,"0,50",-35.770084381103516,-71.64588928222656,CONAF,Desechos,,Yerbas Buenas,Linares,Maule,9,07 Maule,2025-10-26 15:41:00,domingo,16
782818786,COIHUECO Y OTROS,Controlado,21,8,2025-10-28 15:21,2025-10-28 20:18,,"2,01",-36.77027893066406,-72.95111083984375,CONAF,,,Concepción,Concepción,Biobío,11,08 Biobío,2025-10-28 15:21:00,martes,16
779772842,GA-RANCHO CHICO (PARTICULAR),Extinguido,3,8,2025-10-01 16:47,2025-10-01 18:15,2025-10-01 18:20,"0,01",-36.926387786865234,-72.8852767944336,CONAF,Matorral,,Concepción,Concepción,Biobío,11,08 Biobío,2025-10-01 16:47:00,miércoles,17
782375005,MANZANO MIRAMAR,Extinguido,11,8,2025-10-25 17:56,2025-10-25 22:37,2025-10-25 23:02,"0,80",-37.01750183105469,-73.08611297607422,CONAF,Desechos,,Coronel,Concepción,Biobío,11,08 Biobío,2025-10-25 17:56:00,sábado,18
779759798,LOS PATOS,Extinguido,14,8,2025-10-01 14:13,2025-10-01 16:10,2025-10-01 16:30,"0,00",-36.75749969482422,-72.6513900756836,Empresa,,,Florida,Concepción,Biobío,11,08 Biobío,2025-10-01 14:13:00,miércoles,15
782592043,OL-PELINES Y LOICA SUR BIOBIO (PARTICULAR),Extinguido,13,8,2025-10-21 18:22,2025-10-21 19:30,2025-10-22 08:53,"0,02",-36.93944549560547,-72.75749969482422,CONAF,Matorral,,Florida,Concepción,Biobío,11,08 Biobío,2025-10-21 18:22:00,martes,19
782642721,TRUBUNQUEN,Extinguido,18,8,2025-10-27 15:43,2025-10-27 18:22,2025-10-28 11:18,"1,50",-36.77360916137695,-72.7441635131836,CONAF,Matorral,,Florida,Concepción,Biobío,11,08 Biobío,2025-10-27 15:43:00,lunes,16
782318566,RAMUNTCHO,Extinguido,10,8,2025-10-25 11:47,2025-10-26 12:06,2025-10-26 12:06,"0,28",-36.74805450439453,-73.18861389160156,CONAF,Plantación pino,,Hualpén,Concepción,Biobío,11,08 Biobío,2025-10-25 11:47:00,sábado,12
777749201,CANADA,Extinguido,3,8,2025-07-23 17:12,2025-07-23 19:10,2025-07-23 19:26,"0,01",-36.982887268066406,-72.83658599853516,Empresa,,,Hualqui,Concepción,Biobío,11,08 Biobío,2025-07-23 17:12:00,miércoles,18
778777864,SN ONOFRE,Extinguido,11,8,2025-09-18 18:23,2025-09-18 20:26,2025-09-18 21:01,"0,01",-37.01057815551758,-72.88809967041016,Empresa,,,Hualqui,Concepción,Biobío,11,08 Biobío,2025-09-18 18:23:00,jueves,19
782494658,STO DOMINGO 2,Extinguido,12,8,2025-10-26 17:13,,2025-10-27 13:01,"0,42",-36.947776794433594,-72.98110961914062,CONAF,Matorral,,Hualqui,Concepción,Biobío,11,08 Biobío,2025-10-26 17:13:00,domingo,18
782300582,GA-PLAYA NEGRA,Extinguido,31,8,2025-10-23 03:36,2025-10-23 06:10,2025-10-23 10:17,"0,31",-36.753055572509766,-73.0102767944336,Empresa,,,Penco,Concepción,Biobío,11,08 Biobío,2025-10-23 03:36:00,jueves,4
777893617,GA-PLAYA NEGRA,Extinguido,8,8,2025-09-05 19:34,2025-09-05 21:30,2025-09-05 22:10,"0,03",-36.75555419921875,-73.01249694824219,Empresa,,,Penco,Concepción,Biobío,11,08 Biobío,2025-09-05 19:34:00,viernes,20
782597892,OL-COIHUECO Y OTROS BIOBIO (PARTICULAR),Extinguido,15,8,2025-10-19 13:36,2025-10-19 14:56,2025-10-19 15:30,"0,04",-36.75222396850586,-72.92610931396484,CONAF,Matorral,,Penco,Concepción,Biobío,11,08 Biobío,2025-10-19 13:36:00,domingo,14
777749390,LOS COIGUES 1,Extinguido,4,8,2025-08-14 12:35,2025-08-14 16:15,2025-08-15 12:39,"0,28",-36.739444732666016,-72.90694427490234,Empresa,,,Tomé,Concepción,Biobío,11,08 Biobío,2025-08-14 12:35:00,jueves,13
782222916,LA REFORMA,Extinguido,9,8,2025-10-24 16:44,2025-10-24 19:51,2025-10-24 21:38,"0,85",-36.68722152709961,-72.81639099121094,CONAF,Matorral,,Tomé,Concepción,Biobío,11,08 Biobío,2025-10-24 16:44:00,viernes,17
782594541,DON ELIAS CORONEY (PARTICULAR),Extinguido,14,8,2025-10-25 01:28,2025-10-25 03:20,2025-10-25 03:53,"0,04",-36.66202926635742,-72.89710998535156,CONAF,Matorral,,Tomé,Concepción,Biobío,11,08 Biobío,2025-10-25 01:28:00,sábado,2
781159819,COLIUMO,Extinguido,6,8,2025-10-17 12:14,,2025-10-20 10:33,"2,00",-36.567779541015625,-72.98416900634766,CONAF,Desechos,,Tomé,Concepción,Biobío,11,08 Biobío,2025-10-17 12:14:00,viernes,13
782556496,"CRUCES, MARIA LAS",Extinguido,33,8,2025-10-26 18:37,2025-10-26 20:02,2025-10-26 20:46,"0,04",-37.254722595214844,-73.1691665649414,Empresa,,,Arauco,Arauco,Biobío,11,08 Biobío,2025-10-26 18:37:00,domingo,19
780405434,LLICO,Extinguido,18,8,2025-10-01 15:08,2025-10-01 16:00,2025-10-02 16:53,"0,39",-37.2022590637207,-73.55399322509766,Empresa,,,Arauco,Arauco,Biobío,11,08 Biobío,2025-10-01 15:08:00,miércoles,16
780405797,6105 - LLENQUEHUE PARC 18,Extinguido,19,8,2025-10-02 20:00,2025-10-02 20:45,2025-10-02 20:45,"0,05",-37.77055740356445,-73.43861389160156,Empresa,,,Cañete,Arauco,Biobío,11,08 Biobío,2025-10-02 20:00:00,jueves,21
782209331,LLONCAO LAS DUNAS,Extinguido,8,8,2025-10-24 15:37,2025-10-24 18:10,2025-10-24 21:38,"0,65",-37.90861129760742,-73.47777557373047,CONAF,Pastizal,,Cañete,Arauco,Biobío,11,08 Biobío,2025-10-24 15:37:00,viernes,16
781158524,QUELIHUE,Extinguido,5,8,2025-10-17 12:06,2025-10-17 13:58,2025-10-17 19:15,"0,15",-37.82194519042969,-73.45610809326172,CONAF,Desechos,,Cañete,Arauco,Biobío,11,08 Biobío,2025-10-17 12:06:00,viernes,13
780465664,SAN JOSE DE COLICO,Extinguido,20,8,2025-10-10 18:45,2025-10-10 19:43,2025-10-10 19:57,"0,00",-37.37111282348633,-73.33805847167969,Empresa,,,Curanilahue,Arauco,Biobío,11,08 Biobío,2025-10-10 18:45:00,viernes,19
780620275,"AR, EL",Extinguido,21,8,2025-10-12 20:28,2025-10-12 23:14,2025-10-13 16:18,"0,10",-37.64083480834961,-73.6272201538086,Empresa,,,Lebu,Arauco,Biobío,11,08 Biobío,2025-10-12 20:28:00,domingo,21
780879072,PILPILCO ABAJO,Extinguido,26,8,2025-10-14 19:11,2025-10-14 21:45,2025-10-14 21:50,"0,03",-37.60472106933594,-73.3822250366211,Empresa,,,Los Alamos,Arauco,Biobío,11,08 Biobío,2025-10-14 19:11:00,martes,20
782608206,PATA DE VACA,Extinguido,17,8,2025-10-27 13:16,2025-10-27 15:06,2025-10-27 23:04,"0,68",-37.600276947021484,-73.41694641113281,CONAF,Desechos,,Los Alamos,Arauco,Biobío,11,08 Biobío,2025-10-27 13:16:00,lunes,14
782931150,PASO LOS NEGROS,Controlado,23,8,2025-10-29 08:40,2025-10-29 11:50,,"0,57",-37.695526123046875,-73.41991424560547,CONAF,Desechos,,Los Alamos,Arauco,Biobío,11,08 Biobío,2025-10-29 08:40:00,miércoles,9
777522605,CAICUNES R. RALCO,Extinguido,1,8,2025-08-18 17:25,,2025-08-19 10:27,"6,18",-37.94163131713867,-71.37357330322266,CONAF,Arbolado natural,Ralco,Alto Biobío,Biobio,Biobío,11,08 Biobío,2025-08-18 17:25:00,lunes,18
782791692,SAN VICENTE LOTE A PART.,Extinguido,20,8,2025-10-19 15:20,2025-10-19 16:01,2025-10-19 16:11,"0,01",-37.239166259765625,-72.5425033569336,CONAF,Matorral,,Laja,Biobio,Biobío,11,08 Biobío,2025-10-19 15:20:00,domingo,16
780757881,LO ALFREDO PORCION 1 Y 2,Extinguido,25,8,2025-10-13 19:35,2025-10-13 21:06,2025-10-14 15:51,"0,22",-37.40194320678711,-72.5875015258789,Empresa,,,Los Angeles,Biobio,Biobío,11,08 Biobío,2025-10-13 19:35:00,lunes,20
781330199,SANTA MAGDALENA// R95I,Extinguido,7,8,2025-10-18 15:56,2025-10-18 17:35,2025-10-18 17:55,"1,45",-37.41972351074219,-72.38833618164062,CONAF,Pastizal,,Los Angeles,Biobio,Biobío,11,08 Biobío,2025-10-18 15:56:00,sábado,16
777227985,MANQUECUEL,Extinguido,1,8,2025-07-17 19:44,2025-07-18 11:54,2025-07-18 16:05,"0,70",-37.732582092285156,-72.16677856445312,Empresa,,,Mulchén,Biobio,Biobío,11,08 Biobío,2025-07-17 19:44:00,jueves,20
777832319,BELLAVISTA (VUELO),Extinguido,7,8,2025-09-04 13:31,2025-09-04 15:30,2025-09-22 09:00,"0,07",-37.81972122192383,-72.19611358642578,Empresa,,,Mulchén,Biobio,Biobío,11,08 Biobío,2025-09-04 13:31:00,jueves,14
780757481,LA ESPERANZA DE MALVEN,Extinguido,24,8,2025-10-12 19:44,2025-10-12 23:59,2025-10-22 10:00,"3,12",-37.66694259643555,-72.38249969482422,Empresa,,,Mulchén,Biobio,Biobío,11,08 Biobío,2025-10-12 19:44:00,domingo,20
782598743,VERDUN PART.,Extinguido,16,8,2025-10-09 20:30,2025-10-09 23:06,2025-10-20 14:00,"0,86",-37.77305603027344,-72.25638580322266,CONAF,Desechos,,Mulchén,Biobio,Biobío,11,08 Biobío,2025-10-09 20:30:00,jueves,21
780280709,MALVEN,Extinguido,4,8,2025-10-09 13:56,2025-10-09 18:31,2025-10-10 16:40,"4,60",-37.62944412231445,-72.43277740478516,CONAF,Plantación pino,,Mulchén,Biobio,Biobío,11,08 Biobío,2025-10-09 13:56:00,jueves,14
782770047,NEGRETE,Extinguido,19,8,2025-10-28 10:57,2025-10-28 12:59,2025-10-28 15:49,"1,50",-37.58222198486328,-72.50250244140625,CONAF,Matorral,,Negrete,Biobio,Biobío,11,08 Biobío,2025-10-28 10:57:00,martes,11
777752053,LA LOMA (PARTICULAR),Extinguido,2,8,2025-08-31 00:36,2025-08-31 01:17,2025-08-31 01:20,"0,14",-37.50035095214844,-71.80615234375,CONAF,Matorral,,Quilleco,Biobio,Biobío,11,08 Biobío,2025-08-31 00:36:00,domingo,1
782859846,SAN LORENZO,Controlado,22,8,2025-10-28 18:23,2025-10-29 10:44,,"2,11",-37.545555114746094,-71.61138916015625,CONAF,,,Santa Bárbara,Biobio,Biobío,11,08 Biobío,2025-10-28 18:23:00,martes,19
778926563,DAMAS,Extinguido,12,9,2025-09-24 16:12,2025-09-24 17:02,2025-09-24 17:02,"0,01",-38.67277908325195,-73.12999725341797,CONAF,Desechos,,Carahue,Cautín,La Araucanía,12,09 La Araucanía,2025-09-24 16:12:00,miércoles,17
781370753,QUILLEN (P),Extinguido,36,9,2025-10-18 22:34,2025-10-18 23:43,2025-10-19 12:00,"0,50",-38.741615295410156,-73.12972259521484,CONAF,Matorral,,Carahue,Cautín,La Araucanía,12,09 La Araucanía,2025-10-18 22:34:00,sábado,23
781370819,CATRIPULLI,Extinguido,37,9,2025-10-18 22:34,2025-10-18 23:38,2025-10-19 11:04,"0,01",-38.8046875,-73.13749694824219,CONAF,Plantación eucaliptus,,Carahue,Cautín,La Araucanía,12,09 La Araucanía,2025-10-18 22:34:00,sábado,23
782172451,SANTA LAURA,Controlado,30,9,2025-10-23 20:33,2025-10-24 08:30,,"0,12",-38.5724983215332,-72.79722595214844,Empresa,,,Cholchol,Cautín,La Araucanía,12,09 La Araucanía,2025-10-23 20:33:00,jueves,21
780644984,LA ESPERANZA Y OTROS,Controlado,22,9,2025-10-10 09:08,2025-10-10 11:15,,"0,01",-38.50972366333008,-72.93333435058594,Empresa,,,Cholchol,Cautín,La Araucanía,12,09 La Araucanía,2025-10-10 09:08:00,viernes,10
779300400,LA ESPERANZA Y OTROS,Extinguido,12,9,2025-09-17 19:58,2025-09-26 11:00,2025-09-26 11:01,"0,58",-38.511112213134766,-72.9366683959961,Empresa,Arbolado natural,,Cholchol,Cautín,La Araucanía,12,09 La Araucanía,2025-09-17 19:58:00,miércoles,20
782819040,REPOCURA,Extinguido,57,9,2025-10-28 15:22,2025-10-28 18:23,2025-10-28 23:55,"1,70",-38.47861099243164,-72.95500183105469,CONAF,Matorral,,Cholchol,Cautín,La Araucanía,12,09 La Araucanía,2025-10-28 15:22:00,martes,16
777934669,ROMOLHUE,Extinguido,3,9,2025-09-08 15:25,2025-09-08 15:50,2025-09-08 17:40,"0,10",-38.57805633544922,-72.8861083984375,CONAF,Matorral,,Cholchol,Cautín,La Araucanía,12,09 La Araucanía,2025-09-08 15:25:00,lunes,16
782347905,ROMOLHUE 3,Extinguido,48,9,2025-10-25 15:13,2025-10-25 16:57,2025-10-26 05:25,"2,50",-38.616390228271484,-72.91444396972656,CONAF,Matorral,,Cholchol,Cautín,La Araucanía,12,09 La Araucanía,2025-10-25 15:13:00,sábado,16
781191700,COIPUCO,Extinguido,33,9,2025-10-17 15:47,2025-10-17 18:09,2025-10-18 05:03,"2,50",-38.573612213134766,-72.92138671875,CONAF,Matorral,,Cholchol,Cautín,La Araucanía,12,09 La Araucanía,2025-10-17 15:47:00,viernes,16
778327692,CANCAN,Extinguido,7,9,2025-09-12 19:20,2025-09-12 20:18,2025-09-12 20:18,"0,01",-38.93574142456055,-71.92916870117188,CONAF,Matorral,,Cunco,Cautín,La Araucanía,12,09 La Araucanía,2025-09-12 19:20:00,viernes,20
779022271,PELAL,Extinguido,16,9,2025-09-25 16:30,2025-09-25 17:55,2025-09-25 17:55,"0,01",-38.867942810058594,-72.71366882324219,CONAF,Desechos,,Freire,Cautín,La Araucanía,12,09 La Araucanía,2025-09-25 16:30:00,jueves,17
777960792,LOLEN,Extinguido,4,9,2025-08-29 19:30,2025-08-29 19:43,2025-08-29 19:43,"0,01",-38.97833251953125,-72.7397232055664,CONAF,Matorral,,Freire,Cautín,La Araucanía,12,09 La Araucanía,2025-08-29 19:30:00,viernes,20
778908214,LOLEN BAJO,Extinguido,11,9,2025-09-17 18:45,2025-09-17 19:21,2025-09-17 19:21,"0,10",-38.97186279296875,-72.71741485595703,CONAF,Matorral,,Freire,Cautín,La Araucanía,12,09 La Araucanía,2025-09-17 18:45:00,miércoles,19
780315325,LOLEN BAJO,Extinguido,28,9,2025-10-09 21:44,2025-10-10 01:35,2025-10-10 08:58,"0,50",-38.97416687011719,-72.73110961914062,CONAF,Matorral,,Freire,Cautín,La Araucanía,12,09 La Araucanía,2025-10-09 21:44:00,jueves,22
781076601,5014 - TILOS DE RENICO,Extinguido,28,9,2025-10-16 16:25,2025-10-16 16:40,2025-10-16 20:00,"0,01",-38.516666412353516,-72.67250061035156,Empresa,,,Galvarino,Cautín,La Araucanía,12,09 La Araucanía,2025-10-16 16:25:00,jueves,17
781899087,CHACAICO,Extinguido,43,9,2025-10-22 16:31,2025-10-22 20:09,2025-10-23 05:04,"4,00",-38.48222351074219,-72.86666870117188,CONAF,Plantación eucaliptus,,Galvarino,Cautín,La Araucanía,12,09 La Araucanía,2025-10-22 16:31:00,miércoles,17
782639562,FORTIN ñIELOL,Extinguido,52,9,2025-10-27 15:33,2025-10-27 18:29,2025-10-28 06:50,"1,80",-38.46916580200195,-72.69416809082031,CONAF,Matorral,,Galvarino,Cautín,La Araucanía,12,09 La Araucanía,2025-10-27 15:33:00,lunes,16
782590195,QUINTRILPE,Extinguido,50,9,2025-10-27 11:45,2025-10-27 16:49,2025-10-27 16:50,"1,00",-38.4900016784668,-72.21277618408203,CONAF,Pastizal,,Lautaro,Cautín,La Araucanía,12,09 La Araucanía,2025-10-27 11:45:00,lunes,12
779471523,QUILLEN,Extinguido,23,9,2025-10-01 14:48,2025-10-01 16:41,2025-10-01 17:08,"8,00",-38.46730041503906,-72.41629791259766,CONAF,Pastizal,,Lautaro,Cautín,La Araucanía,12,09 La Araucanía,2025-10-01 14:48:00,miércoles,15
777975123,SAN JERONIMO,Extinguido,5,9,2025-09-05 19:36,2025-09-05 20:23,2025-09-05 20:23,"0,02",-39.364166259765625,-72.61111450195312,CONAF,Matorral,,Loncoche,Cautín,La Araucanía,12,09 La Araucanía,2025-09-05 19:36:00,viernes,20
777579309,QUESQUECHAN,Extinguido,2,9,2025-08-18 16:17,2025-08-18 17:00,2025-08-18 17:00,"0,20",-39.2810173034668,-72.55754852294922,CONAF,Pastizal,,Loncoche,Cautín,La Araucanía,12,09 La Araucanía,2025-08-18 16:17:00,lunes,17
779680918,SANTA MARIA,Extinguido,24,9,2025-10-03 16:20,2025-10-04 11:14,2025-10-04 11:14,"0,50",-38.828609466552734,-71.66722106933594,CONAF,Plantación pino,,Melipeuco,Cautín,La Araucanía,12,09 La Araucanía,2025-10-03 16:20:00,viernes,17
782244062,SANTA ADELA,Extinguido,46,9,2025-10-24 18:58,2025-10-24 20:32,2025-10-25 05:23,"1,50",-38.74055480957031,-72.87889099121094,CONAF,Plantación eucaliptus,,Nueva Imperial,Cautín,La Araucanía,12,09 La Araucanía,2025-10-24 18:58:00,viernes,19
780281204,SANTA MARIA 2,Extinguido,27,9,2025-10-09 15:53,2025-10-09 17:30,2025-10-09 17:40,"0,50",-38.780277252197266,-73.05611419677734,CONAF,Matorral,,Nueva Imperial,Cautín,La Araucanía,12,09 La Araucanía,2025-10-09 15:53:00,jueves,16
781344167,RANQUILCO ALTO,Extinguido,35,9,2025-10-18 17:50,2025-10-18 20:32,2025-10-19 06:20,"0,40",-38.665279388427734,-73.01889038085938,CONAF,Matorral,,Nueva Imperial,Cautín,La Araucanía,12,09 La Araucanía,2025-10-18 17:50:00,sábado,18
782258887,MOLCO,Extinguido,47,9,2025-10-24 21:26,2025-10-24 21:58,2025-10-24 23:35,"0,30",-38.81627655029297,-72.76805877685547,CONAF,Matorral,,Padre Las Casas,Cautín,La Araucanía,12,09 La Araucanía,2025-10-24 21:26:00,viernes,22
782703109,CAMINO A REPOCURA,Extinguido,54,9,2025-10-27 22:51,2025-10-28 04:07,2025-10-28 22:27,"0,50",-38.82638931274414,-72.6050033569336,CONAF,Matorral,,Padre Las Casas,Cautín,La Araucanía,12,09 La Araucanía,2025-10-27 22:51:00,lunes,23
779372423,CAMINO A CODIHUE KM5,Extinguido,21,9,2025-09-30 14:02,2025-09-30 17:03,2025-09-30 17:04,"1,00",-38.835052490234375,-72.57635498046875,CONAF,Matorral,,Padre Las Casas,Cautín,La Araucanía,12,09 La Araucanía,2025-09-30 14:02:00,martes,15
778337384,CONUNHUENO,Extinguido,8,9,2025-09-15 20:22,2025-09-16 01:33,2025-09-16 09:58,"4,07",-38.75331497192383,-72.58171844482422,CONAF,Matorral,,Padre Las Casas,Cautín,La Araucanía,12,09 La Araucanía,2025-09-15 20:22:00,lunes,21
782232808,COYANCO,Extinguido,45,9,2025-10-24 17:30,2025-10-24 19:47,2025-10-25 05:24,"1,18",-38.467777252197266,-72.538330078125,CONAF,Plantación eucaliptus,,Perquenco,Cautín,La Araucanía,12,09 La Araucanía,2025-10-24 17:30:00,viernes,18
779662624,3036 - MAHUIDANCHI Y OTROS,Extinguido,13,9,2025-09-06 21:09,2025-09-06 22:35,2025-09-06 22:36,"0,01",-39.09255599975586,-72.93787384033203,Empresa,,,Pitrufquén,Cautín,La Araucanía,12,09 La Araucanía,2025-09-06 21:09:00,sábado,22
782834728,FILOCO,Extinguido,56,9,2025-10-28 16:23,2025-10-28 19:10,2025-10-28 19:57,"0,90",-39.047386169433594,-72.81488800048828,CONAF,Matorral,,Pitrufquén,Cautín,La Araucanía,12,09 La Araucanía,2025-10-28 16:23:00,martes,17
779097116,TIL TIL,Extinguido,19,9,2025-09-25 20:15,2025-09-25 21:00,2025-09-25 21:17,"0,15",-39.0090217590332,-72.59707641601562,CONAF,Pastizal,,Pitrufquén,Cautín,La Araucanía,12,09 La Araucanía,2025-09-25 20:15:00,jueves,21
779087574,POLUL,Extinguido,18,9,2025-09-25 17:55,2025-09-25 18:28,2025-09-25 18:30,"0,20",-39.182498931884766,-72.38555908203125,CONAF,Pastizal,,Pitrufquén,Cautín,La Araucanía,12,09 La Araucanía,2025-09-25 17:55:00,jueves,18
782850590,CALLEJON EL ALAMO  2,Extinguido,58,9,2025-10-28 16:56,2025-10-28 17:48,2025-10-28 17:48,"0,01",-38.75825119018555,-72.76197052001953,CONAF,Matorral,,Temuco,Cautín,La Araucanía,12,09 La Araucanía,2025-10-28 16:56:00,martes,17
782697849,CAMINO A LA SERENA,Extinguido,53,9,2025-10-27 20:48,2025-10-28 01:40,2025-10-28 22:27,"1,50",-38.62152862548828,-72.69349670410156,CONAF,Pastizal,,Temuco,Cautín,La Araucanía,12,09 La Araucanía,2025-10-27 20:48:00,lunes,21
782823566,CHANQUIN,Controlado,59,9,2025-10-28 15:42,2025-10-29 13:57,,"7,20",-38.65611267089844,-72.64111328125,CONAF,Matorral,,Temuco,Cautín,La Araucanía,12,09 La Araucanía,2025-10-28 15:42:00,martes,16
782992286,TROMEN ALTO,En combate,61,9,2025-10-29 14:25,,,"0,01",-38.66488265991211,-72.70972442626953,CONAF,,,Temuco,Cautín,La Araucanía,12,09 La Araucanía,2025-10-29 14:25:00,miércoles,15
779315945,LABRANZA,Extinguido,20,9,2025-09-29 18:30,2025-09-29 19:27,2025-09-29 19:35,"0,10",-38.75666809082031,-72.774169921875,CONAF,Pastizal,,Temuco,Cautín,La Araucanía,12,09 La Araucanía,2025-09-29 18:30:00,lunes,19
779004887,BOYECO,Extinguido,13,9,2025-09-25 14:29,2025-09-25 15:17,2025-09-25 15:17,"0,01",-38.6844596862793,-72.62472534179688,CONAF,Desechos,,Temuco,Cautín,La Araucanía,12,09 La Araucanía,2025-09-25 14:29:00,jueves,15
779384350,CALLEJON EL ALAMO,Extinguido,22,9,2025-09-30 15:45,2025-09-30 16:27,2025-09-30 16:28,"0,01",-38.75825119018555,-72.76194763183594,CONAF,Pastizal,,Temuco,Cautín,La Araucanía,12,09 La Araucanía,2025-09-30 15:45:00,martes,16
779701104,REUMéN,Extinguido,26,9,2025-10-03 21:22,2025-10-04 00:30,2025-10-04 09:15,"0,01",-38.65833282470703,-72.66194152832031,CONAF,Pastizal,,Temuco,Cautín,La Araucanía,12,09 La Araucanía,2025-10-03 21:22:00,viernes,22
781082413,CONOCO CHICO,Extinguido,31,9,2025-10-16 18:48,2025-10-16 20:15,2025-10-17 07:03,"2,00",-38.621944427490234,-72.6802749633789,CONAF,Matorral,,Temuco,Cautín,La Araucanía,12,09 La Araucanía,2025-10-16 18:48:00,jueves,19
781433907,BOCHOCO,Extinguido,39,9,2025-10-19 13:46,2025-10-19 16:56,2025-10-19 23:27,"1,90",-38.638057708740234,-72.66416931152344,CONAF,Matorral,,Temuco,Cautín,La Araucanía,12,09 La Araucanía,2025-10-19 13:46:00,domingo,14
781688949,NATRI,Extinguido,42,9,2025-10-21 12:00,2025-10-21 13:00,2025-10-21 13:00,"0,01",-38.69872283935547,-72.4375,CONAF,Matorral,,Vilcún,Cautín,La Araucanía,12,09 La Araucanía,2025-10-21 12:00:00,martes,13
778843629,QUINTRILPE ALTO,Extinguido,10,9,2025-09-08 19:50,2025-09-08 21:08,2025-09-08 21:09,"0,20",-38.63833236694336,-72.37194061279297,CONAF,Matorral,,Vilcún,Cautín,La Araucanía,12,09 La Araucanía,2025-09-08 19:50:00,lunes,20
779700931,CAMINO EL NATRE,Extinguido,25,9,2025-10-03 21:18,2025-10-03 22:20,2025-10-03 22:21,"0,01",-38.72111129760742,-72.45333099365234,CONAF,Matorral,,Vilcún,Cautín,La Araucanía,12,09 La Araucanía,2025-10-03 21:18:00,viernes,22
781076496,SAN LUIS DE FORTIN,Controlado,27,9,2025-10-15 12:54,2025-10-16 15:20,,"0,01",-37.92555618286133,-72.61805725097656,Empresa,,,Angol,Malleco,La Araucanía,12,09 La Araucanía,2025-10-15 12:54:00,miércoles,13
781282766,CERRO PELLAMENCO Y OTROS 2,Extinguido,34,9,2025-10-18 11:13,2025-10-18 15:38,2025-10-19 06:19,"0,01",-37.75972366333008,-72.74610900878906,CONAF,Plantación eucaliptus,,Angol,Malleco,La Araucanía,12,09 La Araucanía,2025-10-18 11:13:00,sábado,12
782346563,CERRO PELLAMENCO Y OTROS 3,Extinguido,49,9,2025-10-25 15:04,2025-10-25 18:31,2025-10-26 05:25,"0,71",-37.75972366333008,-72.74610900878906,CONAF,Plantación pino,,Angol,Malleco,La Araucanía,12,09 La Araucanía,2025-10-25 15:04:00,sábado,16
777513421,JUNQUILLAR PART.,Extinguido,1,9,2025-07-14 22:01,2025-07-15 00:00,2025-07-15 11:55,"0,15",-37.78361129760742,-72.75444793701172,CONAF,Plantación pino,,Angol,Malleco,La Araucanía,12,09 La Araucanía,2025-07-14 22:01:00,lunes,23
780747561,EL CERRO DE PELLOMENCO Y,Extinguido,30,9,2025-10-08 15:27,2025-10-08 18:41,2025-10-14 10:17,"0,26",-37.762779235839844,-72.74666595458984,CONAF,Matorral,,Angol,Malleco,La Araucanía,12,09 La Araucanía,2025-10-08 15:27:00,miércoles,16
780658474,VIADUCTO MALLECO,Extinguido,29,9,2025-10-13 13:20,2025-10-13 15:16,2025-10-14 08:03,"0,05",-37.961387634277344,-72.4383316040039,CONAF,Pastizal,,Collipulli,Malleco,La Araucanía,12,09 La Araucanía,2025-10-13 13:20:00,lunes,14
781825235,SANTA ANA,Extinguido,29,9,2025-10-19 17:06,2025-10-19 19:05,2025-10-21 10:45,"0,90",-37.92885971069336,-72.95630645751953,Empresa,,,Los Sauces,Malleco,La Araucanía,12,09 La Araucanía,2025-10-19 17:06:00,domingo,18
778323219,LOS SAUCES P,Extinguido,6,9,2025-09-15 17:00,2025-09-15 17:30,2025-09-15 17:31,"0,10",-37.99361038208008,-72.84139251708984,CONAF,Basural,,Los Sauces,Malleco,La Araucanía,12,09 La Araucanía,2025-09-15 17:00:00,lunes,18
781419308,PICHILONCOYAN,Extinguido,38,9,2025-10-19 11:15,2025-10-19 14:50,2025-10-19 23:26,"2,40",-38.103057861328125,-72.98361206054688,CONAF,Desechos,,Purén,Malleco,La Araucanía,12,09 La Araucanía,2025-10-19 11:15:00,domingo,12
782625910,PICHILONCOYAN,Extinguido,51,9,2025-10-27 14:35,2025-10-27 16:30,2025-10-27 16:31,"0,48",-38.102779388427734,-72.98777770996094,CONAF,Plantación eucaliptus,,Purén,Malleco,La Araucanía,12,09 La Araucanía,2025-10-27 14:35:00,lunes,15
782858348,COYANCAHUIN,Controlado,60,9,2025-10-28 18:12,2025-10-29 15:19,,"2,85",-37.93983459472656,-73.03791809082031,CONAF,Desechos,,Purén,Malleco,La Araucanía,12,09 La Araucanía,2025-10-28 18:12:00,martes,19
779022390,LONCOYAN 2,Extinguido,15,9,2025-09-25 16:36,2025-09-25 18:30,2025-09-25 18:40,"3,00",-38.10100173950195,-72.98479461669922,CONAF,Desechos,,Purén,Malleco,La Araucanía,12,09 La Araucanía,2025-09-25 16:36:00,jueves,17
778362108,LONCOYAN,Extinguido,9,9,2025-09-15 17:44,2025-09-15 18:35,2025-09-15 18:40,"0,01",-38.09666061401367,-72.9782943725586,CONAF,Matorral,,Purén,Malleco,La Araucanía,12,09 La Araucanía,2025-09-15 17:44:00,lunes,18
781604949,EL ENCANTO,Extinguido,41,9,2025-10-20 18:46,2025-10-20 20:42,2025-10-21 02:25,"0,30",-37.8930549621582,-72.31277465820312,CONAF,Plantación eucaliptus,,Renaico,Malleco,La Araucanía,12,09 La Araucanía,2025-10-20 18:46:00,lunes,19
779085303,CHUFQUEN,Extinguido,17,9,2025-09-25 14:30,2025-09-25 14:37,2025-09-25 14:38,"1,25",-38.374298095703125,-72.68930053710938,CONAF,Pastizal,,Traiguén,Malleco,La Araucanía,12,09 La Araucanía,2025-09-25 14:30:00,jueves,15
781921184,MANZANAR,Extinguido,44,9,2025-10-22 18:48,2025-10-22 20:27,2025-10-23 05:03,"0,10",-38.19578552246094,-72.09716033935547,CONAF,Pastizal,,Victoria,Malleco,La Araucanía,12,09 La Araucanía,2025-10-22 18:48:00,miércoles,19
782815690,CAILLIN,Extinguido,55,9,2025-10-28 15:07,2025-10-28 20:11,2025-10-29 12:22,"0,80",-38.184444427490234,-71.97777557373047,CONAF,Otros,,Victoria,Malleco,La Araucanía,12,09 La Araucanía,2025-10-28 15:07:00,martes,16
779023075,DUMO,Extinguido,14,9,2025-09-25 15:14,2025-09-25 15:36,2025-09-25 15:41,"0,01",-38.1574592590332,-72.30783081054688,CONAF,Pastizal,,Victoria,Malleco,La Araucanía,12,09 La Araucanía,2025-09-25 15:14:00,jueves,16
781486144,TOQUIHUE,Extinguido,40,9,2025-10-19 23:00,2025-10-20 01:10,2025-10-20 10:26,"1,50",-38.198333740234375,-72.44139099121094,CONAF,Matorral,,Victoria,Malleco,La Araucanía,12,09 La Araucanía,2025-10-19 23:00:00,domingo,0
777842503,LA CAPILLA ISLA TENGLO,Extinguido,2,10,2025-09-05 14:32,2025-09-05 16:20,2025-09-05 17:06,"0,15",-41.50361251831055,-72.9800033569336,CONAF,Desechos,,Puerto Montt,Llanquihue,Los Lagos,14,10 Los Lagos,2025-09-05 14:32:00,viernes,15
777683828,EL TABANO,Extinguido,1,10,2025-08-31 19:45,2025-08-31 22:30,2025-09-01 10:15,"0,71",-41.434444427490234,-72.90389251708984,CONAF,Matorral,,Puerto Montt,Llanquihue,Los Lagos,14,10 Los Lagos,2025-08-31 19:45:00,domingo,20
778304028,LAS ANTENAS,Extinguido,6,10,2025-09-15 11:40,2025-09-15 14:13,2025-09-16 17:10,"1,50",-41.512306213378906,-72.98855590820312,CONAF,Matorral,,Puerto Montt,Llanquihue,Los Lagos,14,10 Los Lagos,2025-09-15 11:40:00,lunes,12
782598936,HUEIHUEN,Extinguido,11,10,2025-10-27 12:18,2025-10-27 16:22,2025-10-27 17:25,"1,30",-41.86050033569336,-73.80997467041016,CONAF,Matorral,,Ancud,Chiloé,Los Lagos,14,10 Los Lagos,2025-10-27 12:18:00,lunes,13
779563342,EL VALLE,Extinguido,7,10,2025-10-01 20:23,2025-10-02 13:07,2025-10-02 13:14,"0,04",-41.85327911376953,-73.70027923583984,CONAF,Matorral,,Ancud,Chiloé,Los Lagos,14,10 Los Lagos,2025-10-01 20:23:00,miércoles,21
777849249,LOS SEPÚLVEDA,Extinguido,3,10,2025-09-04 12:10,2025-09-04 13:50,2025-09-04 14:00,"0,20",-42.417301177978516,-73.71441650390625,CONAF,Matorral,,Castro,Chiloé,Los Lagos,14,10 Los Lagos,2025-09-04 12:10:00,jueves,13
779583822,SAN JOSE,Extinguido,8,10,2025-10-02 16:05,2025-10-02 17:20,2025-10-02 17:40,"0,40",-42.44444274902344,-73.68277740478516,CONAF,Matorral,,Castro,Chiloé,Los Lagos,14,10 Los Lagos,2025-10-02 16:05:00,jueves,17
777928340,LA RESERVA,Extinguido,4,10,2025-09-04 15:00,2025-09-04 16:30,2025-09-04 17:00,"0,02",-42.37929153442383,-73.72669219970703,CONAF,Matorral,,Castro,Chiloé,Los Lagos,14,10 Los Lagos,2025-09-04 15:00:00,jueves,16
777937998,CHAÑIHUE,Extinguido,5,10,2025-09-04 17:00,2025-09-04 18:20,2025-09-04 18:30,"0,05",-42.499027252197266,-73.73564147949219,CONAF,Pastizal,,Castro,Chiloé,Los Lagos,14,10 Los Lagos,2025-09-04 17:00:00,jueves,18
781899796,APOLO,Extinguido,10,10,2025-10-22 16:20,2025-10-22 18:30,2025-10-23 16:04,"0,60",-42.379581451416016,-73.75100708007812,CONAF,Matorral,,Dalcahue,Chiloé,Los Lagos,14,10 Los Lagos,2025-10-22 16:20:00,miércoles,17
781900615,DRAGON ROJO,Extinguido,9,10,2025-10-17 14:00,2025-10-17 14:06,2025-10-22 15:00,"0,11",-42.381168365478516,-73.70230865478516,CONAF,Matorral,,Dalcahue,Chiloé,Los Lagos,14,10 Los Lagos,2025-10-17 14:00:00,viernes,15
778312184,BAHIA JARA,Extinguido,3,11,2025-09-12 19:20,,2025-09-13 10:30,"0,01",-46.563846588134766,-71.8499755859375,CONAF,Pastizal,,Chile Chico,General Carrera,Aysén,15,11 Aysén,2025-09-12 19:20:00,viernes,20
777895185,BUEN AMIGO,Extinguido,2,11,2025-09-07 15:10,2025-09-07 19:00,2025-09-07 19:15,"0,40",-46.213340759277344,-72.06153869628906,CONAF,Pastizal,,Río Ibáñez,General Carrera,Aysén,15,11 Aysén,2025-09-07 15:10:00,domingo,16
778862568,EL MAITENAL,Extinguido,4,11,2025-09-23 20:58,2025-09-26 12:35,2025-09-29 09:34,"35,00",-46.2922477722168,-71.98802185058594,CONAF,Pastizal,,Río Ibáñez,General Carrera,Aysén,15,11 Aysén,2025-09-23 20:58:00,martes,21
778476326,PROLONGACIÓN IGNACIO CARRERA PINTO,Extinguido,1,12,2025-09-17 15:00,2025-09-17 16:12,2025-09-17 17:00,"0,43",-53.148616790771484,-70.94329833984375,CONAF,Pastizal,Magallanes,Punta Arenas,Magallanes,Magallanes,16,12 Magallanes,2025-09-17 15:00:00,miércoles,16
781732283,COLONIA ISABEL RIQUELME,Extinguido,4,12,2025-10-21 15:55,2025-10-21 16:15,2025-10-22 15:06,"0,06",-51.760276794433594,-72.43963623046875,CONAF,Pastizal,,Natales,Ultima Esperanza,Magallanes,16,12 Magallanes,2025-10-21 15:55:00,martes,16
779152683,SECTOR PLANTA REVISIÓN TECNICA,Extinguido,3,12,2025-09-27 11:29,2025-09-27 11:44,2025-09-27 14:18,"0,78",-51.70719909667969,-72.45816802978516,CONAF,Pastizal,Cueva del Milodón,Natales,Ultima Esperanza,Magallanes,16,12 Magallanes,2025-09-27 11:29:00,sábado,12
779103362,"HUERTO 182, CAMINO 2",Extinguido,2,12,2025-09-26 14:55,2025-09-26 16:00,2025-09-26 17:31,"0,11",-51.69194412231445,-72.50527954101562,CONAF,,,Natales,Ultima Esperanza,Magallanes,16,12 Magallanes,2025-09-26 14:55:00,viernes,15
781572430,ZANJON DE LA AGUADA,Extinguido,25,13,2025-10-20 15:19,2025-10-20 16:57,2025-10-20 17:04,"0,80",-33.494388580322266,-70.7919692993164,CONAF,Pastizal,,Maipú,Santiago,Metropolitana,7,13 Metropolitana,2025-10-20 15:19:00,lunes,16
779767830,DIEGO BARROS ORTIZ,Extinguido,13,13,2025-10-04 15:07,2025-10-04 16:02,2025-10-04 16:10,"0,15",-33.36888885498047,-70.79944610595703,CONAF,Pastizal,,Pudahuel,Santiago,Metropolitana,7,13 Metropolitana,2025-10-04 15:07:00,sábado,16
781468757,COLO COLO,Extinguido,22,13,2025-10-19 18:06,2025-10-19 19:52,2025-10-19 20:25,"0,20",-33.35246658325195,-70.76204681396484,CONAF,Pastizal,,Quilicura,Santiago,Metropolitana,7,13 Metropolitana,2025-10-19 18:06:00,domingo,19
781572698,SANTA LUISA 2,Extinguido,24,13,2025-10-20 15:20,2025-10-20 17:19,2025-10-20 18:11,"7,00",-33.344932556152344,-70.73100280761719,CONAF,Pastizal,,Quilicura,Santiago,Metropolitana,7,13 Metropolitana,2025-10-20 15:20:00,lunes,16
781554945,SAN LUIS 2,Extinguido,23,13,2025-10-20 13:27,2025-10-20 14:50,2025-10-20 15:23,"0,50",-33.352195739746094,-70.76152801513672,CONAF,Pastizal,,Quilicura,Santiago,Metropolitana,7,13 Metropolitana,2025-10-20 13:27:00,lunes,14
777849678,LO ECHEVERS,Extinguido,6,13,2025-09-05 16:27,2025-09-05 18:09,2025-09-05 18:28,"1,50",-33.34333419799805,-70.7972183227539,CONAF,Pastizal,,Quilicura,Santiago,Metropolitana,7,13 Metropolitana,2025-09-05 16:27:00,viernes,17
777989779,CAMINO CEMENTERIO,Extinguido,7,13,2025-09-09 14:51,2025-09-09 15:39,2025-09-09 15:50,"0,10",-33.37694549560547,-70.73833465576172,CONAF,Pastizal,,Quilicura,Santiago,Metropolitana,7,13 Metropolitana,2025-09-09 14:51:00,martes,15
780692951,SANTA LUISA,Extinguido,17,13,2025-10-13 17:00,2025-10-13 18:38,2025-10-13 18:46,"1,60",-33.341583251953125,-70.72663879394531,CONAF,Matorral,,Quilicura,Santiago,Metropolitana,7,13 Metropolitana,2025-10-13 17:00:00,lunes,18
781363157,CAMINO CEMENTERIO 2,Extinguido,20,13,2025-10-18 20:34,2025-10-18 23:54,2025-10-19 11:41,"10,00",-33.37819290161133,-70.7395248413086,CONAF,Pastizal,,Quilicura,Santiago,Metropolitana,7,13 Metropolitana,2025-10-18 20:34:00,sábado,21
781441679,SAN LUIS,Extinguido,21,13,2025-10-19 14:28,2025-10-19 15:57,2025-10-19 16:24,"2,50",-33.34416580200195,-70.75777435302734,CONAF,Pastizal,,Quilicura,Santiago,Metropolitana,7,13 Metropolitana,2025-10-19 14:28:00,domingo,15
777224132,LAS CLARILLANAS,Extinguido,3,13,2025-07-22 11:40,2025-07-22 13:00,2025-07-22 13:29,"0,01",-33.68030548095703,-70.5947494506836,CONAF,Pastizal,,Pirque,Cordillera,Metropolitana,7,13 Metropolitana,2025-07-22 11:40:00,martes,12
781913899,EL TRINCACO,Extinguido,28,13,2025-10-22 17:56,2025-10-22 19:16,2025-10-22 19:47,"1,00",-33.292137145996094,-70.88339233398438,CONAF,Pastizal,,Lampa,Chacabuco,Metropolitana,7,13 Metropolitana,2025-10-22 17:56:00,miércoles,18
782361494,EL AMANECER,Extinguido,31,13,2025-10-25 16:33,2025-10-25 18:45,2025-10-25 19:43,"3,00",-33.2581672668457,-70.76821899414062,CONAF,Pastizal,,Lampa,Chacabuco,Metropolitana,7,13 Metropolitana,2025-10-25 16:33:00,sábado,17
777163355,COQUIMBO,Extinguido,2,13,2025-07-17 15:06,2025-07-18 09:31,2025-07-18 09:36,"6,00",-33.20166778564453,-70.7844467163086,CONAF,Pastizal,,Lampa,Chacabuco,Metropolitana,7,13 Metropolitana,2025-07-17 15:06:00,jueves,16
782708722,LO VARGAS,Extinguido,39,13,2025-10-28 00:17,2025-10-28 01:54,2025-10-28 10:31,"0,70",-33.258750915527344,-70.87691497802734,CONAF,Basural,,Lampa,Chacabuco,Metropolitana,7,13 Metropolitana,2025-10-28 00:17:00,martes,1
782482101,LO PINTO,Extinguido,35,13,2025-10-26 15:50,2025-10-26 16:58,2025-10-26 17:01,"0,04",-33.27506637573242,-70.74791717529297,CONAF,Pastizal,,Lampa,Chacabuco,Metropolitana,7,13 Metropolitana,2025-10-26 15:50:00,domingo,16
777464629,LO CASTRO,Extinguido,4,13,2025-08-12 13:36,2025-08-12 14:52,2025-08-12 14:53,"0,01",-33.295555114746094,-70.78244018554688,CONAF,Pastizal,,Lampa,Chacabuco,Metropolitana,7,13 Metropolitana,2025-08-12 13:36:00,martes,14
782865851,EL PELLIN,Extinguido,41,13,2025-10-28 18:44,2025-10-28 19:39,2025-10-28 19:45,"0,05",-33.29083251953125,-70.87777709960938,CONAF,,,Lampa,Chacabuco,Metropolitana,7,13 Metropolitana,2025-10-28 18:44:00,martes,19
780171082,CACIQUE COLIN,Extinguido,14,13,2025-10-08 16:18,2025-10-08 16:58,2025-10-08 17:04,"0,03",-33.26525115966797,-70.84408569335938,CONAF,Pastizal,,Lampa,Chacabuco,Metropolitana,7,13 Metropolitana,2025-10-08 16:18:00,miércoles,17
780933205,LAS MERCEDES,Extinguido,18,13,2025-10-15 16:47,2025-10-15 18:03,2025-10-15 18:07,"0,10",-33.237220764160156,-70.92805480957031,CONAF,Pastizal,,Lampa,Chacabuco,Metropolitana,7,13 Metropolitana,2025-10-15 16:47:00,miércoles,17
781312470,LO ECHEVERS 2,Extinguido,19,13,2025-10-18 14:23,2025-10-18 16:34,2025-10-18 16:40,"0,01",-33.30666732788086,-70.84305572509766,CONAF,Pastizal,,Lampa,Chacabuco,Metropolitana,7,13 Metropolitana,2025-10-18 14:23:00,sábado,15
782096227,ESTERO CHACABUCO,Extinguido,29,13,2025-10-23 21:36,2025-10-23 22:50,2025-10-23 23:08,"2,00",-33.16283416748047,-70.87364196777344,CONAF,Pastizal,,Tiltil,Chacabuco,Metropolitana,7,13 Metropolitana,2025-10-23 21:36:00,jueves,22
782806835,HUERTOS FAMILIARES,Extinguido,40,13,2025-10-28 13:56,2025-10-28 15:23,2025-10-28 15:38,"0,20",-33.147029876708984,-70.79846954345703,CONAF,Pastizal,,Tiltil,Chacabuco,Metropolitana,7,13 Metropolitana,2025-10-28 13:56:00,martes,14
779479684,FUNDO MONTECARLOS,Extinguido,10,13,2025-10-01 16:13,2025-10-01 18:38,2025-10-01 20:01,"5,20",-33.12905502319336,-70.83922576904297,CONAF,Pastizal,,Tiltil,Chacabuco,Metropolitana,7,13 Metropolitana,2025-10-01 16:13:00,miércoles,17
779560501,FUNDO AMANCAY,Extinguido,11,13,2025-10-02 13:06,2025-10-02 15:09,2025-10-02 16:09,"0,10",-33.13055419921875,-70.91444396972656,CONAF,Desechos,,Tiltil,Chacabuco,Metropolitana,7,13 Metropolitana,2025-10-02 13:06:00,jueves,14
780250548,PASAJE LA CRUZ,Extinguido,15,13,2025-10-09 11:26,2025-10-09 14:32,2025-10-09 14:32,"0,20",-33.76505661010742,-70.73535919189453,CONAF,Pastizal,,Buin,Maipo,Metropolitana,7,13 Metropolitana,2025-10-09 11:26:00,jueves,12
777994595,CORONEL,Extinguido,8,13,2025-09-09 15:49,2025-09-09 17:50,2025-09-09 17:57,"0,07",-33.80888748168945,-70.72888946533203,CONAF,Matorral,,Paine,Maipo,Metropolitana,7,13 Metropolitana,2025-09-09 15:49:00,martes,16
780549281,DIEZ ORIENTE,Extinguido,16,13,2025-10-12 11:17,2025-10-12 12:29,2025-10-12 12:33,"0,20",-33.8120002746582,-70.75074768066406,CONAF,Pastizal,,Paine,Maipo,Metropolitana,7,13 Metropolitana,2025-10-12 11:17:00,domingo,12
779663781,FUNDO CAREN,Extinguido,12,13,2025-10-03 14:19,2025-10-03 15:08,2025-10-03 15:29,"0,02",-34.0653076171875,-71.22021484375,CONAF,Arbolado natural,,Alhué,Melipilla,Metropolitana,7,13 Metropolitana,2025-10-03 14:19:00,viernes,15
782458775,LO AGUILA,Extinguido,33,13,2025-10-26 13:01,2025-10-26 15:57,2025-10-26 16:17,"1,50",-33.42194366455078,-71.14083099365234,CONAF,Pastizal,,Curacaví,Melipilla,Metropolitana,7,13 Metropolitana,2025-10-26 13:01:00,domingo,14
782463075,MONTERREY,Extinguido,34,13,2025-10-26 13:34,2025-10-26 14:20,2025-10-26 15:01,"0,30",-33.39527893066406,-71.17610931396484,CONAF,Pastizal,,Curacaví,Melipilla,Metropolitana,7,13 Metropolitana,2025-10-26 13:34:00,domingo,14
782983849,LO PRADO,En combate,43,13,2025-10-29 13:48,,,"50,00",-33.4589729309082,-70.98558044433594,CONAF,Pastizal,,Curacaví,Melipilla,Metropolitana,7,13 Metropolitana,2025-10-29 13:48:00,miércoles,14
781893326,CHOCALAN,Extinguido,27,13,2025-10-22 15:58,2025-10-22 17:17,2025-10-22 18:35,"0,01",-33.73097229003906,-71.21607971191406,CONAF,Matorral,,Melipilla,Melipilla,Metropolitana,7,13 Metropolitana,2025-10-22 15:58:00,miércoles,16
782486227,LOS MAITENES,Extinguido,36,13,2025-10-26 16:13,2025-10-26 17:11,2025-10-26 18:05,"0,30",-33.66461181640625,-71.2403335571289,CONAF,Pastizal,,Melipilla,Melipilla,Metropolitana,7,13 Metropolitana,2025-10-26 16:13:00,domingo,17
782623965,CRUCE EL MARCO,Extinguido,37,13,2025-10-27 14:24,2025-10-27 15:43,2025-10-27 16:48,"0,20",-33.6740837097168,-71.16039276123047,CONAF,Pastizal,,Melipilla,Melipilla,Metropolitana,7,13 Metropolitana,2025-10-27 14:24:00,lunes,15
777710624,PUENTE PUANGUE,Extinguido,5,13,2025-09-02 11:30,2025-09-02 13:42,2025-09-02 13:46,"0,01",-33.65238952636719,-71.3199462890625,CONAF,Pastizal,,Melipilla,Melipilla,Metropolitana,7,13 Metropolitana,2025-09-02 11:30:00,martes,12
778472153,HUECHUN,Extinguido,9,13,2025-09-17 15:42,2025-09-17 17:26,2025-09-17 17:32,"0,01",-33.721221923828125,-71.33833312988281,CONAF,Pastizal,,Melipilla,Melipilla,Metropolitana,7,13 Metropolitana,2025-09-17 15:42:00,miércoles,16
782257001,PUENTE MANUEL RODRIGUEZ,Extinguido,30,13,2025-10-24 20:55,2025-10-24 21:51,2025-10-24 21:56,"0,01",-33.70600128173828,-71.01258087158203,CONAF,Matorral,,El Monte,Talagante,Metropolitana,7,13 Metropolitana,2025-10-24 20:55:00,viernes,21
777159307,LO CHACON,Extinguido,1,13,2025-07-17 11:55,2025-07-17 13:30,2025-07-17 13:57,"0,01",-33.70277786254883,-71.01944732666016,CONAF,Matorral,,El Monte,Talagante,Metropolitana,7,13 Metropolitana,2025-07-17 11:55:00,jueves,12
781888426,LA ISLITA,Extinguido,26,13,2025-10-22 15:34,2025-10-22 16:49,2025-10-22 16:55,"0,30",-33.75030517578125,-70.85855865478516,CONAF,Pastizal,,Isla de Maipo,Talagante,Metropolitana,7,13 Metropolitana,2025-10-22 15:34:00,miércoles,16
782393109,MANUEL RODRIGUEZ,Extinguido,32,13,2025-10-25 21:11,2025-10-25 23:52,2025-10-26 12:40,"0,40",-33.64099884033203,-70.93216705322266,CONAF,Pastizal,,Talagante,Talagante,Metropolitana,7,13 Metropolitana,2025-10-25 21:11:00,sábado,22
782676687,LA MANREZA,Extinguido,38,13,2025-10-27 18:24,2025-10-27 19:22,2025-10-27 20:38,"0,30",-33.71847152709961,-71.00105285644531,CONAF,Pastizal,,Talagante,Talagante,Metropolitana,7,13 Metropolitana,2025-10-27 18:24:00,lunes,19
781094566,LOS CIRUELOS,Extinguido,1,14,2025-10-16 19:40,2025-10-17 13:32,2025-10-17 13:33,"2,50",-39.79887771606445,-72.7205810546875,CONAF,Matorral,,Los Lagos,Valdivia,Los Ríos,13,14 Los Ríos,2025-10-16 19:40:00,jueves,20
781320314,CASA DE BARRO,Extinguido,2,14,2025-10-18 14:19,2025-10-18 17:57,2025-10-18 17:59,"0,05",-39.74505615234375,-73.37591552734375,CONAF,Arbolado natural,,Valdivia,Valdivia,Los Ríos,13,14 Los Ríos,2025-10-18 14:19:00,sábado,15
782818369,PICHICHOROICO,Controlado,3,14,2025-10-28 14:40,2025-10-28 16:14,,"0,10",-40.1981315612793,-72.93464660644531,CONAF,Pastizal,,La Unión,Ranco,Los Ríos,13,14 Los Ríos,2025-10-28 14:40:00,martes,15
777046569,HUANTA KM 6,Extinguido,1,15,2025-07-08 11:00,2025-07-08 16:55,2025-07-08 18:26,"2,60",-18.407852172851562,-70.04389953613281,CONAF,Matorral,,Arica,Arica,Arica y Parinacota,1,15 Arica y Parinacota,2025-07-08 11:00:00,martes,12
777936653,HUANTA KM 4 08-09-2025,Extinguido,2,15,2025-09-08 14:00,2025-09-08 18:38,2025-09-08 19:36,"2,00",-18.419370651245117,-70.0510025024414,CONAF,Pastizal,,Arica,Arica,Arica y Parinacota,1,15 Arica y Parinacota,2025-09-08 14:00:00,lunes,15
778009448,SECTOR PUTANI,Extinguido,3,15,2025-09-09 14:30,2025-09-09 20:02,2025-09-09 21:01,"51,41",-17.751279830932617,-69.54158020019531,CONAF,Pastizal,,General Lagos,Parinacota,Arica y Parinacota,1,15 Arica y Parinacota,2025-09-09 14:30:00,martes,15
780905678,VALENTIN LETELIER,Extinguido,18,5,2025-10-15 14:05,2025-10-15 15:04,2025-10-15 15:07,"0,09",-33.03438949584961,-71.35678100585938,CONAF,Pastizal,,Villa Alemana,Marga Marga,Valparaíso,6,05 Valparaíso,2025-10-15 14:05:00,miércoles,15
781768899,BERNARDO LEIGTHON,Extinguido,23,5,2025-10-21 20:13,2025-10-21 21:06,2025-10-21 22:24,"0,10",-33.06516647338867,-71.35736083984375,CONAF,Pastizal,,Villa Alemana,Marga Marga,Valparaíso,6,05 Valparaíso,2025-10-21 20:13:00,martes,21
782475572,HACIENDA LAS PALMAS - SECTOR 7 PALMAS,Extinguido,29,5,2025-10-26 15:05,2025-10-26 17:11,2025-10-27 13:55,"6,30",-33.14250183105469,-71.39167022705078,CONAF,Pastizal,,Quilpué,Marga Marga,Valparaíso,6,05 Valparaíso,2025-10-26 15:05:00,domingo,16
781929563,PUENTE COLMO,Extinguido,24,5,2025-10-22 20:04,2025-10-22 21:24,2025-10-23 12:00,"0,04",-32.920223236083984,-71.4270248413086,CONAF,Pastizal,,Limache,Marga Marga,Valparaíso,6,05 Valparaíso,2025-10-22 20:04:00,miércoles,21
782474068,EL TOLLO,Extinguido,32,16,2025-10-26 15:03,2025-10-26 16:50,2025-10-26 19:05,"0,07",-36.16999816894531,-72.6844482421875,Empresa,,,Cobquecura,Itata,Ñuble,10,16 Ñuble,2025-10-26 15:03:00,domingo,16
780651790,LLOHUE (PARTICULAR),Extinguido,5,16,2025-10-11 18:56,2025-10-11 20:28,2025-10-11 20:35,"0,14",-36.275001525878906,-72.46138763427734,CONAF,Desechos,,Ninhue,Itata,Ñuble,10,16 Ñuble,2025-10-11 18:56:00,sábado,19
782221225,LA CANCHA,Extinguido,13,16,2025-10-24 16:36,2025-10-24 17:07,2025-10-24 17:09,"0,18",-36.530555725097656,-72.45083618164062,CONAF,Pastizal,,Portezuelo,Itata,Ñuble,10,16 Ñuble,2025-10-24 16:36:00,viernes,17
779633837,EL GOMERO (PARTICULAR),Extinguido,2,16,2025-09-29 15:55,2025-09-29 18:00,2025-10-01 15:20,"0,27",-36.32474899291992,-72.62772369384766,CONAF,Matorral,,Quirihue,Itata,Ñuble,10,16 Ñuble,2025-09-29 15:55:00,lunes,16
780055812,PAN DE AZUCAR,Extinguido,4,16,2025-10-07 17:04,2025-10-07 17:50,2025-10-07 18:07,"0,01",-36.67616271972656,-72.11346435546875,CONAF,Matorral,,Chillán Viejo,Diguillín,Ñuble,10,16 Ñuble,2025-10-07 17:04:00,martes,18
782591522,QUINCHAMALI,Extinguido,15,16,2025-10-27 11:52,2025-10-27 12:54,2025-10-27 13:03,"0,02",-36.644168853759766,-72.3919448852539,CONAF,Pastizal,,Chillán,Diguillín,Ñuble,10,16 Ñuble,2025-10-27 11:52:00,lunes,12
782837269,HUAPE,Extinguido,18,16,2025-10-28 16:42,2025-10-28 17:48,2025-10-28 18:53,"0,18",-36.614723205566406,-72.19583129882812,CONAF,Otros,,Chillán,Diguillín,Ñuble,10,16 Ñuble,2025-10-28 16:42:00,martes,17
782987667,GLEISNER,Controlado,20,16,2025-10-29 14:06,2025-10-29 15:21,,"0,15",-36.6430549621582,-72.0213851928711,CONAF,,,Chillán,Diguillín,Ñuble,10,16 Ñuble,2025-10-29 14:06:00,miércoles,15
782843600,MAIPO,Extinguido,19,16,2025-10-28 17:09,2025-10-28 19:30,2025-10-28 19:53,"0,61",-36.97972106933594,-71.88249969482422,CONAF,Pastizal,,El Carmen,Diguillín,Ñuble,10,16 Ñuble,2025-10-28 17:09:00,martes,18
782812901,LAS PATAGUAS,Extinguido,17,16,2025-10-28 14:55,2025-10-28 15:43,2025-10-28 17:06,"0,61",-36.753055572509766,-72.45861053466797,CONAF,Matorral,,Quillón,Diguillín,Ñuble,10,16 Ñuble,2025-10-28 14:55:00,martes,15
780829485,COYANCO ALTO,Extinguido,6,16,2025-10-14 23:24,2025-10-14 23:59,2025-10-15 00:00,"0,03",-36.733612060546875,-72.51860809326172,CONAF,Matorral,,Quillón,Diguillín,Ñuble,10,16 Ñuble,2025-10-14 23:24:00,martes,0
779687895,VARIANTE SAN IGNACIO,Extinguido,3,16,2025-10-03 16:17,2025-10-03 16:55,2025-10-03 16:56,"0,01",-36.78694534301758,-72.07221984863281,CONAF,Pastizal,,San Ignacio,Diguillín,Ñuble,10,16 Ñuble,2025-10-03 16:17:00,viernes,17
782621845,RINCONADA DE ITATA,Extinguido,16,16,2025-10-27 14:17,2025-10-27 16:04,2025-10-27 16:05,"0,04",-37.121665954589844,-72.10416412353516,CONAF,Pastizal,,Yungay,Diguillín,Ñuble,10,16 Ñuble,2025-10-27 14:17:00,lunes,15
781755773,BAJO RELOCA,Extinguido,9,16,2025-10-21 18:01,2025-10-21 20:30,2025-10-22 12:01,"0,06",-36.55849838256836,-72.0094985961914,CONAF,Arbolado natural,,Coihueco,Punilla,Ñuble,10,16 Ñuble,2025-10-21 18:01:00,martes,19
781842626,CAMPO NUEVO,Extinguido,10,16,2025-10-22 11:26,2025-10-22 14:03,2025-10-22 15:51,"0,10",-36.6511116027832,-71.83139038085938,CONAF,Matorral,,Coihueco,Punilla,Ñuble,10,16 Ñuble,2025-10-22 11:26:00,miércoles,12
781740637,EL EMBALSE,Extinguido,8,16,2025-10-21 17:02,2025-10-22 10:23,2025-10-22 10:49,"0,70",-36.633609771728516,-71.80027770996094,CONAF,Arbolado natural,,Coihueco,Punilla,Ñuble,10,16 Ñuble,2025-10-21 17:02:00,martes,18
781865256,MENELHUE,Extinguido,11,16,2025-10-22 13:36,2025-10-22 14:39,2025-10-22 17:00,"0,17",-36.502777099609375,-72.01889038085938,CONAF,Pastizal,,San Carlos,Punilla,Ñuble,10,16 Ñuble,2025-10-22 13:36:00,miércoles,14
781882474,PICHOCO,Extinguido,12,16,2025-10-22 15:04,2025-10-22 16:04,2025-10-22 16:42,"0,10",-36.51555633544922,-72.0250015258789,CONAF,Matorral,,San Carlos,Punilla,Ñuble,10,16 Ñuble,2025-10-22 15:04:00,miércoles,16
777794962,KM 374 SAN CARLOS,Extinguido,1,16,2025-09-04 16:26,2025-09-04 17:46,2025-09-05 13:35,"13,90",-36.407779693603516,-71.94055938720703,CONAF,Desechos,,San Carlos,Punilla,Ñuble,10,16 Ñuble,2025-09-04 16:26:00,jueves,17
781440910,LA PIEDRA,Extinguido,7,16,2025-10-19 14:38,2025-10-19 15:57,2025-10-19 16:04,"0,07",-36.483055114746094,-72.28416442871094,CONAF,Pastizal,,San Nicolás,Punilla,Ñuble,10,16 Ñuble,2025-10-19 14:38:00,domingo,15
782664892,RIO MOGOTE,Extinguido,5,11,2025-10-27 17:00,2025-10-27 17:46,2025-10-27 17:47,"0,01",-45.58222579956055,-72.08583068847656,CONAF,Pastizal,,Coyhaique,Coyhaique,Aysén,15,11 Aysén,2025-10-27 17:00:00,lunes,18
777792805,TEJAS VERDES 1,Extinguido,1,11,2025-09-04 16:22,2025-09-04 17:05,2025-09-04 17:18,"0,01",-45.56306076049805,-72.01918029785156,CONAF,Desechos,,Coyhaique,Coyhaique,Aysén,15,11 Aysén,2025-09-04 16:22:00,jueves,17
